[
  {
    "Name": "Thomond Park",
    "Url": "http://www.thomondpark.ie",
    "Telephone": 35361421109,
    "Longitude": -8.642519,
    "Latitude": 52.6742164,
    "AddressRegion": "Limerick",
    "AddressLocality": "",
    "AddressCountry": "Ireland",
    "Tags": "Museums and Attraction,Stadium,Sports Venue,Venue,Sports Venues,Cafe,Food and Drink,Pubs and Bar,Food Shops,Shopping,Tour"
  },
  {
    "Name": "Ireland Writing Retreat Donegal",
    "Url": "https://www.irelandwritingretreat.com",
    "Telephone": 353833000000,
    "Longitude": -8.232854867,
    "Latitude": 55.05149629,
    "AddressRegion": "Donegal",
    "AddressLocality": "Gweedore",
    "AddressCountry": "Ireland",
    "Tags": "Learning,Activity Operator,Literary Ireland"
  },
  {
    "Name": "Gallery of Photography",
    "Url": "http://www.galleryofphotography.ie",
    "Telephone": "+353(0)16714654",
    "Longitude": -6.265433335,
    "Latitude": 53.34483942,
    "AddressRegion": "Dublin",
    "AddressLocality": "",
    "AddressCountry": "Republic of Ireland",
    "Tags": "Craft,Shopping,Learning,Photography,Art Gallery,Food Shops"
  },
  {
    "Name": "Swords Castle",
    "Url": "https://swordscastle.events/",
    "Telephone": "+353(0)1840 0891",
    "Longitude": -6.220338,
    "Latitude": 53.459928,
    "AddressRegion": "Dublin",
    "AddressLocality": "Swords",
    "AddressCountry": "Republic of Ireland",
    "Tags": "Historic Houses and Castle,Castle,Tour"
  },
  {
    "Name": "Kilbolane Castle",
    "Url": "https://visitballyhoura.com/explore/kilbolane-castle",
    "Telephone": 3536391300,
    "Longitude": -8.8468668,
    "Latitude": 52.3377252,
    "AddressRegion": "Cork",
    "AddressLocality": "",
    "AddressCountry": "Ireland",
    "Tags": "Historic Houses and Castle,Castle"
  },
  {
    "Name": "Cathedral of Christ the King",
    "Url": "http://www.mullingarparish.ie",
    "Telephone": 353449000000,
    "Longitude": -7.3458111,
    "Latitude": 53.5270509,
    "AddressRegion": "Westmeath",
    "AddressLocality": "Mullingar",
    "AddressCountry": "Ireland",
    "Tags": "Historic Houses and Castle,Church Abbey,Monastery,Churches,Abbeys and Monastery"
  },
  {
    "Name": "Athenry Arts and Heritage Centre",
    "Url": "http://www.athenryheritagecentre.com",
    "Telephone": 35391844661,
    "Longitude": -8.746329,
    "Latitude": 53.2995236,
    "AddressRegion": "Galway",
    "AddressLocality": "Athenry",
    "AddressCountry": "Ireland",
    "Tags": "Covid Safety Charter,Learning,Museums and Attraction"
  },
  {
    "Name": "Beoir Chorca Dhuibhne - West Kerry Brewery",
    "Url": "https://westkerrybrewery.ie",
    "Telephone": 353877000000,
    "Longitude": -10.3863964,
    "Latitude": 52.1704021,
    "AddressRegion": "Kerry",
    "AddressLocality": "Dingle Peninsula",
    "AddressCountry": "Ireland",
    "Tags": "Museums and Attraction,Artisan,Food and Drink,Restaurant,Local Produce,Pubs and Bar,Food Shops,Shopping"
  },
  {
    "Name": "Spanish Point",
    "Url": "",
    "Telephone": "",
    "Longitude": -9.432739,
    "Latitude": 52.842867,
    "AddressRegion": "Clare",
    "AddressLocality": "Spanish Point",
    "AddressCountry": "Ireland",
    "Tags": "Discovery Point"
  },
  {
    "Name": "Dunmore Country School Garden",
    "Url": "http://www.dunmorecountryschool.ie",
    "Telephone": 353579000000,
    "Longitude": -7.400964,
    "Latitude": 52.858234,
    "AddressRegion": "Laois",
    "AddressLocality": "Swan",
    "AddressCountry": "Ireland",
    "Tags": "Food and Drink,Restaurant,Gardening,Nature and Wildlife,Learning,Gardens,Garden"
  },
  {
    "Name": "Dunloe Castle",
    "Url": "https://killarney.ie/listing/dunloe-castle",
    "Telephone": 353647000000,
    "Longitude": -9.627419,
    "Latitude": 52.059671,
    "AddressRegion": "Kerry",
    "AddressLocality": "Beaufort",
    "AddressCountry": "Republic of Ireland",
    "Tags": "Castle,Historic Houses and Castle"
  },
  {
    "Name": "Nowlan Park  Gaelic Stadium",
    "Url": "http://www.kilkennygaa.ie",
    "Telephone": "",
    "Longitude": -7.238554,
    "Latitude": 52.656856,
    "AddressRegion": "Kilkenny",
    "AddressLocality": "Kilkenny City",
    "AddressCountry": "Republic of Ireland",
    "Tags": "Gaa,Activity Operator,Stadium,Sports Venue,Venue,Sports Venues"
  },
  {
    "Name": "Garfinny Bridge",
    "Url": "https://dingle-peninsula.ie/component/zoo/item/garfinny-bridge.html",
    "Telephone": "",
    "Longitude": -10.219193,
    "Latitude": 52.140079,
    "AddressRegion": "Kerry",
    "AddressLocality": "Dingle",
    "AddressCountry": "Republic of Ireland",
    "Tags": "Museums and Attraction"
  },
  {
    "Name": "F. W. Sweny & Co. Ltd.",
    "Url": "http://sweny.ie/site/",
    "Telephone": "+353(0)858146713",
    "Longitude": -6.250578476,
    "Latitude": 53.34188602,
    "AddressRegion": "Dublin",
    "AddressLocality": "Dublin City",
    "AddressCountry": "Ireland",
    "Tags": "Historic Houses and Castle,Literary Ireland,Food Shops,Shopping"
  },
  {
    "Name": "Fairbrook House Gardens",
    "Url": "http://www.fairbrook-house.com",
    "Telephone": 35351384657,
    "Longitude": -7.2640721,
    "Latitude": 52.2397987,
    "AddressRegion": "Waterford",
    "AddressLocality": "",
    "AddressCountry": "Ireland",
    "Tags": "Historic Houses and Castle,Gardens,Garden,Ruins,Cafe,Food and Drink,Food Shops,Shopping,Tour"
  },
  {
    "Name": "Cork City Gaol Heritage Centre",
    "Url": "http://www.corkcitygaol.com",
    "Telephone": 353214000000,
    "Longitude": -8.49866322,
    "Latitude": 51.89876292,
    "AddressRegion": "Cork",
    "AddressLocality": "Cork City",
    "AddressCountry": "Republic of Ireland",
    "Tags": "Covid Safety Charter,Historic Houses and Castle,Museums and Attraction,Food Shops,Shopping,Tour"
  },
  {
    "Name": "Secret Valley Wildlife Park",
    "Url": "https://www.secretvalley.ie/",
    "Telephone": 353539000000,
    "Longitude": -6.755552911,
    "Latitude": 52.42707607,
    "AddressRegion": "Wexford",
    "AddressLocality": "Clonroche",
    "AddressCountry": "Republic of Ireland",
    "Tags": "Visitor Farm,Cafe,Food and Drink"
  },
  {
    "Name": "Dooneen Pier",
    "Url": "",
    "Telephone": "",
    "Longitude": -10.055502,
    "Latitude": 51.648764,
    "AddressRegion": "Cork",
    "AddressLocality": "Kilcrohane",
    "AddressCountry": "Republic of Ireland",
    "Tags": "Discovery Point"
  },
  {
    "Name": "Toraigh (Tory Island)",
    "Url": "",
    "Telephone": "",
    "Longitude": -8.231855662,
    "Latitude": 55.26187815,
    "AddressRegion": "Donegal",
    "AddressLocality": "",
    "AddressCountry": "Ireland",
    "Tags": "Discovery Point"
  },
  {
    "Name": "Inishowen Maritime Museum & New Full Dome Planetarium",
    "Url": "http://www.inishowenmaritime.com",
    "Telephone": 353749000000,
    "Longitude": -6.9853301,
    "Latitude": 55.2034315,
    "AddressRegion": "Donegal",
    "AddressLocality": "Greencastle",
    "AddressCountry": "Ireland",
    "Tags": "Covid Safety Charter,Craft,Shopping,Museums and Attraction,Cafe,Food and Drink,Food Shops"
  },
  {
    "Name": "Annagh Church",
    "Url": "",
    "Telephone": 353667000000,
    "Longitude": -9.742521,
    "Latitude": 52.248165,
    "AddressRegion": "Kerry",
    "AddressLocality": "Blennerville",
    "AddressCountry": "Republic of Ireland",
    "Tags": "Church Abbey,Monastery,Churches,Abbeys and Monastery"
  },
  {
    "Name": "Riversdale Barge Holidays",
    "Url": "http://www.riversdaleholidays.com/",
    "Telephone": 353720000000,
    "Longitude": -7.7950084,
    "Latitude": 54.0294267,
    "AddressRegion": "Leitrim",
    "AddressLocality": "Ballinamore",
    "AddressCountry": "Ireland",
    "Tags": "Cruising,Activity Operator,River,Discovery Point,Boat,Tour"
  },
  {
    "Name": "Donaghmore Famine Workhouse Museum",
    "Url": "http://donaghmoremuseum.ie",
    "Telephone": 353868000000,
    "Longitude": -7.6125907,
    "Latitude": 52.8770211,
    "AddressRegion": "Laois",
    "AddressLocality": "Donaghmore",
    "AddressCountry": "Ireland",
    "Tags": "Agriculture,Nature and Wildlife,Photography,Learning,Historic Houses and Castle,Museums and Attraction,Tour"
  },
  {
    "Name": "Goma Contemporary Gallery",
    "Url": "https://www.facebook.com/gomawaterford",
    "Telephone": 353872000000,
    "Longitude": -7.1052349,
    "Latitude": 52.2594229,
    "AddressRegion": "Waterford",
    "AddressLocality": "",
    "AddressCountry": "Ireland",
    "Tags": "Art Gallery"
  },
  {
    "Name": "Manorhamilton Castle and Heritage Centre",
    "Url": "http://www.manorhamilton.ie/directory/item/219-manorhamilton-castle",
    "Telephone": 353863000000,
    "Longitude": -8.1789831,
    "Latitude": 54.3071338,
    "AddressRegion": "Leitrim",
    "AddressLocality": "Manorhamilton",
    "AddressCountry": "Ireland",
    "Tags": "Historic Houses and Castle,Castle,Ruins,Tour"
  },
  {
    "Name": "Inch Island",
    "Url": "",
    "Telephone": "",
    "Longitude": -7.4599475,
    "Latitude": 55.054828,
    "AddressRegion": "Donegal",
    "AddressLocality": "",
    "AddressCountry": "Ireland",
    "Tags": "Island,Offshore Island"
  },
  {
    "Name": "Blue Pool",
    "Url": "",
    "Telephone": "",
    "Longitude": -9.548521,
    "Latitude": 51.748777,
    "AddressRegion": "Cork",
    "AddressLocality": "",
    "AddressCountry": "Republic of Ireland",
    "Tags": "Discovery Point"
  },
  {
    "Name": "Carrick-On-Suir Heritage Centre and Friary",
    "Url": "https://tipperary.com/listings/carrick-on-suir-heritage-centre-friary",
    "Telephone": 35351640200,
    "Longitude": -7.4131187,
    "Latitude": 52.3466201,
    "AddressRegion": "Tipperary",
    "AddressLocality": "Carrickbeg",
    "AddressCountry": "Ireland",
    "Tags": "Tracing Your Ancestors,Church Abbey,Monastery,Churches,Abbeys and Monastery,Museums and Attraction"
  },
  {
    "Name": "Bantry Harbour",
    "Url": "",
    "Telephone": "",
    "Longitude": -9.4615996,
    "Latitude": 51.679697,
    "AddressRegion": "Cork",
    "AddressLocality": "Bantry",
    "AddressCountry": "Ireland",
    "Tags": "Embarkation Point"
  },
  {
    "Name": "Blackrock Wetlands",
    "Url": "http://visitblackrock.ie",
    "Telephone": "+353(0)872077193",
    "Longitude": -6.375229765,
    "Latitude": 53.95684318,
    "AddressRegion": "Louth",
    "AddressLocality": "Blackrock",
    "AddressCountry": "Ireland",
    "Tags": "Bird Watching,Nature and Wildlife,Walking,Natural Landscape"
  },
  {
    "Name": "The Music Makers of West Clare",
    "Url": "http://www.themusicmakers.ie",
    "Telephone": 353657000000,
    "Longitude": -9.4033314,
    "Latitude": 52.8540133,
    "AddressRegion": "Clare",
    "AddressLocality": "",
    "AddressCountry": "Ireland",
    "Tags": "Covid Safety Charter,Learning,Museums and Attraction"
  },
  {
    "Name": "Dublin Writers Museum",
    "Url": "http://www.writersmuseum.com",
    "Telephone": "+353(0)18722077",
    "Longitude": -6.263985,
    "Latitude": 53.354366,
    "AddressRegion": "Dublin",
    "AddressLocality": "",
    "AddressCountry": "Republic of Ireland",
    "Tags": "Craft,Shopping,Learning,Historic Houses and Castle,Museums and Attraction,Literary Ireland,Food Shops,Tour"
  },
  {
    "Name": "Jonathan Swift",
    "Url": "",
    "Telephone": "+353(0)16057700",
    "Longitude": -6.259186343,
    "Latitude": 53.34465008,
    "AddressRegion": "Dublin",
    "AddressLocality": "Dublin City Centre",
    "AddressCountry": "Republic of Ireland",
    "Tags": "Public Sculpture"
  },
  {
    "Name": "Mountmellick Museum",
    "Url": "https://www.facebook.com/mountmellickmuseumandconference",
    "Telephone": 353579000000,
    "Longitude": -7.327450489,
    "Latitude": 53.11209606,
    "AddressRegion": "Laois",
    "AddressLocality": "Irishtown",
    "AddressCountry": "Republic of Ireland",
    "Tags": "Craft,Shopping,Tracing Your Ancestors,Museums and Attraction,Cafe,Food and Drink,Food Shops"
  },
  {
    "Name": "Ballylarkin Abbey Freshford - Ballylarkin Church",
    "Url": "http://www.megalithicireland.com/Ballylarkin%20Church,%20Kilkenny.html",
    "Telephone": "",
    "Longitude": -7.427511,
    "Latitude": 52.722887,
    "AddressRegion": "",
    "AddressLocality": "",
    "AddressCountry": "",
    "Tags": "Church Abbey,Monastery,Churches,Abbeys and Monastery"
  },
  {
    "Name": "Casino Model Railway Museum",
    "Url": "http://www.modelrailwaymuseum.ie",
    "Telephone": 35361711222,
    "Longitude": -6.1582704,
    "Latitude": 53.4505763,
    "AddressRegion": "Dublin",
    "AddressLocality": "Malahide",
    "AddressCountry": "Ireland",
    "Tags": "Historic Houses and Castle,Museums and Attraction,Tour"
  },
  {
    "Name": "Ormond Castle",
    "Url": "https://heritageireland.ie/places-to-visit/ormond-castle/",
    "Telephone": 35351640787,
    "Longitude": -7.4071873,
    "Latitude": 52.3453336,
    "AddressRegion": "Tipperary",
    "AddressLocality": "Carrickbeg",
    "AddressCountry": "Ireland",
    "Tags": "Covid Safety Charter,Photography,Learning,Walking,Historic Houses and Castle,Castle,Tour"
  },
  {
    "Name": "Sliabh An Iarainn Visitor Centre",
    "Url": "http://leitrimtourism.com/products/sliabh-an-iarainn-visitors-centre",
    "Telephone": 353720000000,
    "Longitude": -8.04021492,
    "Latitude": 54.04758593,
    "AddressRegion": "Leitrim",
    "AddressLocality": "Drumshanbo",
    "AddressCountry": "Republic of Ireland",
    "Tags": "Museums and Attraction"
  },
  {
    "Name": "Nenagh Castle",
    "Url": "https://www.nenagh.ie/places-of-interest/details/nenagh-castle",
    "Telephone": 3536733850,
    "Longitude": -8.1982011,
    "Latitude": 52.865009,
    "AddressRegion": "Tipperary",
    "AddressLocality": "Nenagh",
    "AddressCountry": "Ireland",
    "Tags": "Photography,Learning,Historic Houses and Castle,Castle,Public Park,Nature and Wildlife"
  },
  {
    "Name": "Fawnglass Loop",
    "Url": "https://www.irishtrails.ie/trail/Clare-Island---Fawnglass-loop/143/",
    "Telephone": "",
    "Longitude": -9.988141954,
    "Latitude": 53.79245548,
    "AddressRegion": "Mayo",
    "AddressLocality": "Clare Island",
    "AddressCountry": "Republic of Ireland",
    "Tags": "Walking,Island,Offshore Island"
  },
  {
    "Name": "Bishops Palace Limerick Civic Trust",
    "Url": "http://www.limerickcivictrust.ie",
    "Telephone": 35361313399,
    "Longitude": -8.625267,
    "Latitude": 52.670433,
    "AddressRegion": "Limerick",
    "AddressLocality": "Limerick City",
    "AddressCountry": "Republic of Ireland",
    "Tags": "Historic Houses and Castle,Museums and Attraction"
  },
  {
    "Name": "Emo Court Gardens",
    "Url": "http://emocourt.ie",
    "Telephone": 353579000000,
    "Longitude": -7.1968533,
    "Latitude": 53.107194,
    "AddressRegion": "Laois",
    "AddressLocality": "Emo",
    "AddressCountry": "Ireland",
    "Tags": "Gardening,Nature and Wildlife,Photography,Learning,Walking,Historic Houses and Castle,Gardens,Garden,Natural Landscape,Cafe,Food and Drink"
  },
  {
    "Name": "Jenkinstown Wood Loop",
    "Url": "http://www.irishtrails.ie/Trail/Jenkinstown-Wood---Jenkinstown-Wood-loop/125/",
    "Telephone": "",
    "Longitude": -7.284483484,
    "Latitude": 52.73116958,
    "AddressRegion": "Kilkenny",
    "AddressLocality": "Kilkenny City",
    "AddressCountry": "Ireland",
    "Tags": "Walking,Natural Landscape"
  },
  {
    "Name": "James Joyce",
    "Url": "http://www.talkingstatuesdublin.ie/statues/james-joyce/",
    "Telephone": "+353(0)16057700",
    "Longitude": -6.259782198,
    "Latitude": 53.3499184,
    "AddressRegion": "Dublin",
    "AddressLocality": "Dublin City",
    "AddressCountry": "Republic of Ireland",
    "Tags": "Public Sculpture,Talking Statue,Literary Ireland"
  },
  {
    "Name": "Ballycarbery Castle",
    "Url": "https://www.theringofkerry.com/ballycarbery-castle",
    "Telephone": 353647000000,
    "Longitude": -10.2586267,
    "Latitude": 51.9489036,
    "AddressRegion": "Kerry",
    "AddressLocality": "Cahersiveen",
    "AddressCountry": "Ireland",
    "Tags": "Castle,Historic Houses and Castle,Ruins"
  },
  {
    "Name": "Belcarra Eviction Cottage",
    "Url": "http://www.museumsofmayo.com/eviction-cottage/eviction-cottage-belcarra.html",
    "Telephone": 353879000000,
    "Longitude": -9.2190281,
    "Latitude": 53.8129006,
    "AddressRegion": "Mayo",
    "AddressLocality": "Castlebar",
    "AddressCountry": "Ireland",
    "Tags": "Museums and Attraction"
  },
  {
    "Name": "Avoca Mill",
    "Url": "https://www.avoca.com/en/stores-and-cafes/village",
    "Telephone": 35340235105,
    "Longitude": -6.210997,
    "Latitude": 52.8613935,
    "AddressRegion": "Wicklow",
    "AddressLocality": "Avoca",
    "AddressCountry": "Ireland",
    "Tags": "Restaurant,Craft,Shopping,Food and Drink,Shopping Centres and Department Store,Museums and Attraction,Cafe,Vegetarian,Food Shops,Tour"
  },
  {
    "Name": "The Garden Hardymount House",
    "Url": "http://www.carlowgardentrail.com/venue/hardymount-gardens/",
    "Telephone": "+353(0)599151769",
    "Longitude": -6.7612269,
    "Latitude": 52.798787,
    "AddressRegion": "Carlow",
    "AddressLocality": "Tullow",
    "AddressCountry": "Republic of Ireland",
    "Tags": "Gardens,Garden"
  },
  {
    "Name": "Golden Strand, Achill Island Beach",
    "Url": "http://www.blueflagireland.org/",
    "Telephone": "+353(0)14002202",
    "Longitude": -10.00880856,
    "Latitude": 53.95585687,
    "AddressRegion": "Mayo",
    "AddressLocality": "",
    "AddressCountry": "Republic of Ireland",
    "Tags": "Swimming,Swimming Pools and Water Park,Venue,Beach"
  },
  {
    "Name": "Corcomroe Cistercian Abbey",
    "Url": "http://monastic.ie/history/corcomroe-cisterican-abbey",
    "Telephone": 353657000000,
    "Longitude": -9.0540065,
    "Latitude": 53.1268421,
    "AddressRegion": "Clare",
    "AddressLocality": "",
    "AddressCountry": "Ireland",
    "Tags": "Church Abbey,Monastery,Churches,Abbeys and Monastery"
  },
  {
    "Name": "Dooega Beach Achill Island",
    "Url": "https://www.blueflag.global/show-site?siteId=6673",
    "Telephone": 35314002202,
    "Longitude": -10.0206359,
    "Latitude": 53.9213832,
    "AddressRegion": "Mayo",
    "AddressLocality": "",
    "AddressCountry": "Ireland",
    "Tags": "Bird Watching,Nature and Wildlife,Swimming,Swimming Pools and Water Park,Venue,Beach"
  },
  {
    "Name": "Dunmore Gardens",
    "Url": "http://dunmoregardens.ie",
    "Telephone": 353838000000,
    "Longitude": -7.4216295,
    "Latitude": 54.9542728,
    "AddressRegion": "Donegal",
    "AddressLocality": "Dunmore",
    "AddressCountry": "Ireland",
    "Tags": "Gardening,Nature and Wildlife,Gardens,Garden"
  },
  {
    "Name": "The Workhouse Famine & Heritage Centre",
    "Url": "http://www.dunfanaghy.info/places/The-Workhouse/78",
    "Telephone": 353749000000,
    "Longitude": -7.97699344,
    "Latitude": 55.17987751,
    "AddressRegion": "Donegal",
    "AddressLocality": "Dunfanaghy",
    "AddressCountry": "Republic of Ireland",
    "Tags": "Museums and Attraction,Cafe,Food and Drink"
  },
  {
    "Name": "Whitestrand Doonbeg Beach",
    "Url": "https://www.blueflag.global/show-site?siteId=6625",
    "Telephone": "",
    "Longitude": -9.5512828,
    "Latitude": 52.7479777,
    "AddressRegion": "Clare",
    "AddressLocality": "",
    "AddressCountry": "Ireland",
    "Tags": "Fishing,Angling,Kitesurfing,Windsurfing,Activity Operator,Surfing,Swimming,Swimming Pools and Water Park,Venue,Beach,Natural Landscape"
  },
  {
    "Name": "Clogherhead Beach",
    "Url": "https://www.blueflag.global/show-site?siteId=6579",
    "Telephone": 353429000000,
    "Longitude": -6.2344532,
    "Latitude": 53.7885745,
    "AddressRegion": "Louth",
    "AddressLocality": "Clogher",
    "AddressCountry": "Ireland",
    "Tags": "Fishing,Angling,Kitesurfing,Windsurfing,Activity Operator,Surfing,Swimming,Swimming Pools and Water Park,Venue,Walking,Beach,Sports Venues"
  },
  {
    "Name": "Christ Church Cathedral",
    "Url": "http://christchurchwaterford.com",
    "Telephone": 35351858958,
    "Longitude": -7.1075534,
    "Latitude": 52.2598798,
    "AddressRegion": "Waterford",
    "AddressLocality": "",
    "AddressCountry": "Ireland",
    "Tags": "Church Abbey,Monastery,Churches,Abbeys and Monastery,Venue,Music"
  },
  {
    "Name": "Pontoon Pier",
    "Url": "",
    "Telephone": "",
    "Longitude": -9.8557878,
    "Latitude": 51.655246,
    "AddressRegion": "Cork",
    "AddressLocality": "Castletownbere",
    "AddressCountry": "Ireland",
    "Tags": "Embarkation Point"
  },
  {
    "Name": "Gap of Mamore",
    "Url": "",
    "Telephone": "",
    "Longitude": -7.5012481,
    "Latitude": 55.243401,
    "AddressRegion": "Donegal",
    "AddressLocality": "",
    "AddressCountry": "Ireland",
    "Tags": "Discovery Point"
  },
  {
    "Name": "Burren Free Range Pork Farm",
    "Url": "http://burrenfreerangepork.com",
    "Telephone": 353657000000,
    "Longitude": -9.19232726,
    "Latitude": 52.98621011,
    "AddressRegion": "Clare",
    "AddressLocality": "Kilfenora",
    "AddressCountry": "Ireland",
    "Tags": "Agriculture,Nature and Wildlife,Learning,Visitor Farm,Activity Operator,Food Shops,Shopping"
  },
  {
    "Name": "Askeaton Castle and Franciscan Friary",
    "Url": "http://monastic.ie/history/askeaton-franciscan-friary",
    "Telephone": 35361392149,
    "Longitude": -8.975399,
    "Latitude": 52.603892,
    "AddressRegion": "Limerick",
    "AddressLocality": "Askeaton",
    "AddressCountry": "Republic of Ireland",
    "Tags": "Church Abbey,Monastery,Churches,Abbeys and Monastery"
  },
  {
    "Name": "Westport House & Grounds",
    "Url": "https://www.westporthouse.ie",
    "Telephone": 3539827766,
    "Longitude": -9.5353669,
    "Latitude": 53.8006529,
    "AddressRegion": "Mayo",
    "AddressLocality": "Westport",
    "AddressCountry": "Ireland",
    "Tags": "Covid Safety Charter,Walking,Adventure Park,Activity Operator,Gardens,Garden,Historic Houses and Castle,Cafe,Food and Drink"
  },
  {
    "Name": "Marblehill",
    "Url": "",
    "Telephone": "",
    "Longitude": -7.9019326,
    "Latitude": 55.176389,
    "AddressRegion": "Donegal",
    "AddressLocality": "Dunfanaghy",
    "AddressCountry": "Ireland",
    "Tags": "Discovery Point"
  },
  {
    "Name": "James Fort Kinsale",
    "Url": "https://www.castles.nl/james-fort",
    "Telephone": 353215000000,
    "Longitude": -8.5120806,
    "Latitude": 51.6986056,
    "AddressRegion": "Cork",
    "AddressLocality": "",
    "AddressCountry": "Ireland",
    "Tags": "Ruins,Historic Houses and Castle"
  },
  {
    "Name": "Central Arts and Exhibitions Centre",
    "Url": "http://www.centralarts.ie",
    "Telephone": "+353(0)864543246",
    "Longitude": -7.106192193,
    "Latitude": 52.26069911,
    "AddressRegion": "Waterford",
    "AddressLocality": "Waterford City",
    "AddressCountry": "Ireland",
    "Tags": "Learning,Art Gallery,Activity Operator"
  },
  {
    "Name": "Bere Island",
    "Url": "http://www.bereisland.net",
    "Telephone": "+353(0)2775099",
    "Longitude": -9.86344539,
    "Latitude": 51.63047154,
    "AddressRegion": "Cork",
    "AddressLocality": "",
    "AddressCountry": "Republic of Ireland",
    "Tags": "Bird Watching,Nature and Wildlife,Cycling,Fishing,Angling,Sailing,Activity Operator,Swimming,Swimming Pools and Water Park,Venue,Walking,Island,Offshore Island,Natural Landscape"
  },
  {
    "Name": "Athlumney Castle",
    "Url": "http://www.discoverboynevalley.ie/boyne-valley-drive/heritage-sites/athlumney-castle-navan",
    "Telephone": 353420000000,
    "Longitude": -6.675048,
    "Latitude": 53.650359,
    "AddressRegion": "Meath",
    "AddressLocality": "Navan",
    "AddressCountry": "Republic of Ireland",
    "Tags": "Castle,Historic Houses and Castle"
  },
  {
    "Name": "Downpatrick Head",
    "Url": "https://www.mayo-ireland.ie/en/towns-villages/ballycastle/activities/downpatrick-head.html",
    "Telephone": "",
    "Longitude": -9.345262191,
    "Latitude": 54.32799086,
    "AddressRegion": "Mayo",
    "AddressLocality": "Downpatrick",
    "AddressCountry": "Ireland",
    "Tags": "Discovery Point"
  },
  {
    "Name": "Achill Cycle Hub",
    "Url": "http://www.irishtrails.ie/Trail/Achill-Cycle-Hub---Loop-1/1144/",
    "Telephone": "+353(0)9847353",
    "Longitude": -9.990732595,
    "Latitude": 53.96261007,
    "AddressRegion": "Mayo",
    "AddressLocality": "Cashel",
    "AddressCountry": "Republic of Ireland",
    "Tags": "Cycling,Island,Offshore Island"
  },
  {
    "Name": "Kanturk Castle",
    "Url": "https://www.castles.nl/kanturk-castle",
    "Telephone": 353214000000,
    "Longitude": -8.9027299,
    "Latitude": 52.164382,
    "AddressRegion": "Cork",
    "AddressLocality": "Banteer",
    "AddressCountry": "Ireland",
    "Tags": "Castle,Historic Houses and Castle"
  },
  {
    "Name": "Findlater Church",
    "Url": "",
    "Telephone": "+353(0)18378600",
    "Longitude": -6.263976,
    "Latitude": 53.35462,
    "AddressRegion": "Dublin",
    "AddressLocality": "Dublin City",
    "AddressCountry": "Republic of Ireland",
    "Tags": "Church Abbey,Monastery,Churches,Abbeys and Monastery"
  },
  {
    "Name": "Whiddy Island",
    "Url": "",
    "Telephone": "",
    "Longitude": -9.50323505,
    "Latitude": 51.69274356,
    "AddressRegion": "Cork",
    "AddressLocality": "Whiddy Island",
    "AddressCountry": "Ireland",
    "Tags": "Island,Offshore Island"
  },
  {
    "Name": "Ballyboy House, Garden & Woodlands",
    "Url": "https://www.garden.ie/gardenstosee/ballyboy-house/",
    "Telephone": "+35352 7465297",
    "Longitude": -7.9712781,
    "Latitude": 52.2823963,
    "AddressRegion": "Tipperary",
    "AddressLocality": "Clogheen",
    "AddressCountry": "Ireland",
    "Tags": "Gardening,Nature and Wildlife,Gardens,Garden"
  },
  {
    "Name": "Castlemorris - Pheasant loop",
    "Url": "http://www.irishtrails.ie",
    "Telephone": "",
    "Longitude": -7.278881549,
    "Latitude": 52.4705016,
    "AddressRegion": "Kilkenny",
    "AddressLocality": "Knocktopher",
    "AddressCountry": "Ireland",
    "Tags": "Walking,Natural Landscape"
  },
  {
    "Name": "St Brigid’s Cathedral & Round Tower",
    "Url": "http://www.kildare.ie/heritage/details.asp?GCID=140",
    "Telephone": 35345530672,
    "Longitude": -6.911371,
    "Latitude": 53.1579272,
    "AddressRegion": "Kildare",
    "AddressLocality": "",
    "AddressCountry": "Ireland",
    "Tags": "Photography,Learning,Historic Houses and Castle,Church Abbey,Monastery,Churches,Abbeys and Monastery"
  },
  {
    "Name": "The Manor Gardens",
    "Url": "https://www.discoverireland.ie/Arts-Culture-Heritage/the-manor-gardens/48219",
    "Telephone": "",
    "Longitude": -9.057847354,
    "Latitude": 51.68778695,
    "AddressRegion": "Cork",
    "AddressLocality": "Dunmanway",
    "AddressCountry": "Republic of Ireland",
    "Tags": "Gardening,Nature and Wildlife,Gardens,Garden"
  },
  {
    "Name": "Fort Dunree Military Museum",
    "Url": "http://www.dunree.pro.ie",
    "Telephone": 353749000000,
    "Longitude": -7.5535056,
    "Latitude": 55.1963666,
    "AddressRegion": "Donegal",
    "AddressLocality": "Buncrana",
    "AddressCountry": "Ireland",
    "Tags": "Covid Safety Charter,Kayaking,Activity Operator,Walking,Museums and Attraction,Cafe,Food and Drink"
  },
  {
    "Name": "Glenquin Castle",
    "Url": "https://www.limerick.ie/discover/eat-see-do/history-heritage/historic-attractions/glenquin-castle",
    "Telephone": 35361396255,
    "Longitude": -9.106741,
    "Latitude": 52.3839379,
    "AddressRegion": "Limerick",
    "AddressLocality": "Glenquin",
    "AddressCountry": "Ireland",
    "Tags": "Castle,Historic Houses and Castle"
  },
  {
    "Name": "Francis Ledwidge Museum",
    "Url": "http://www.francisledwidge.com",
    "Telephone": 353420000000,
    "Longitude": -6.5274991,
    "Latitude": 53.7071243,
    "AddressRegion": "Meath",
    "AddressLocality": "Slane",
    "AddressCountry": "Ireland",
    "Tags": "Covid Safety Charter,Learning,Historic Houses and Castle,Museums and Attraction,Tour"
  },
  {
    "Name": "Ha'penny Bridge",
    "Url": "",
    "Telephone": "",
    "Longitude": -6.263081,
    "Latitude": 53.346307,
    "AddressRegion": "Dublin",
    "AddressLocality": "Dublin City Centre",
    "AddressCountry": "Ireland",
    "Tags": "Public Sculpture"
  },
  {
    "Name": "Black Church Print Studio",
    "Url": "http://blackchurchprint.ie/",
    "Telephone": "+353(0)16773629",
    "Longitude": -6.264056,
    "Latitude": 53.345635,
    "AddressRegion": "Dublin",
    "AddressLocality": "",
    "AddressCountry": "Republic of Ireland",
    "Tags": "Craft,Shopping,Learning,Activity Operator,Art Gallery"
  },
  {
    "Name": "Ballybunion Beach",
    "Url": "",
    "Telephone": "",
    "Longitude": -9.6769166,
    "Latitude": 52.511304,
    "AddressRegion": "Kerry",
    "AddressLocality": "Ballybunion",
    "AddressCountry": "Ireland",
    "Tags": "Discovery Point"
  },
  {
    "Name": "Saint Colman's Cathedral",
    "Url": "https://cobhcathedralparish.ie",
    "Telephone": 353215000000,
    "Longitude": -8.2936865,
    "Latitude": 51.8514618,
    "AddressRegion": "Cork",
    "AddressLocality": "Kilgarvan",
    "AddressCountry": "Ireland",
    "Tags": "Historic Houses and Castle,Church Abbey,Monastery,Churches,Abbeys and Monastery"
  },
  {
    "Name": "Port Beach",
    "Url": "https://www.blueflag.global/show-site?siteId=6579",
    "Telephone": 353429000000,
    "Longitude": -6.25549658,
    "Latitude": 53.83764919,
    "AddressRegion": "Louth",
    "AddressLocality": "Clogherhead",
    "AddressCountry": "Republic of Ireland",
    "Tags": "Photography,Learning,Swimming,Swimming Pools and Water Park,Venue,Walking,Beach,Sports Venues"
  },
  {
    "Name": "St Iberius Church",
    "Url": "",
    "Telephone": "",
    "Longitude": -6.4621424,
    "Latitude": 52.3391991,
    "AddressRegion": "Wexford",
    "AddressLocality": "",
    "AddressCountry": "Ireland",
    "Tags": "Church Abbey,Monastery,Churches,Abbeys and Monastery"
  },
  {
    "Name": "Ardgillan Castle and Victorian Gardens",
    "Url": "https://ardgillancastle.ie",
    "Telephone": 35318492212,
    "Longitude": -6.1616584,
    "Latitude": 53.5817894,
    "AddressRegion": "Dublin",
    "AddressLocality": "Balbriggan",
    "AddressCountry": "Ireland",
    "Tags": "Covid Safety Charter,Learning,Walking,Historic Houses and Castle,Castle,Gardens,Garden,Venue,Music,Cafe,Food and Drink,Local Produce,Restaurant,Tour"
  },
  {
    "Name": "Butler Gallery",
    "Url": "https://www.butlergallery.ie",
    "Telephone": 353568000000,
    "Longitude": -7.2491045,
    "Latitude": 52.6537735,
    "AddressRegion": "Kilkenny",
    "AddressLocality": "Kilkenny City",
    "AddressCountry": "Republic of Ireland",
    "Tags": "Food and Drink,Restaurant,Learning,Photography,Art Gallery,Museums and Attraction,Cafe,Vegan,Vegetarian"
  },
  {
    "Name": "Limerick City Library",
    "Url": "http://www.limerickcity.ie/library/",
    "Telephone": "+353(0)61314668",
    "Longitude": -8.62316,
    "Latitude": 52.665574,
    "AddressRegion": "Limerick",
    "AddressLocality": "Limerick City",
    "AddressCountry": "Republic of Ireland",
    "Tags": "Craft,Shopping,Learning,Tracing Your Ancestors,Museums and Attraction,Literary Ireland"
  },
  {
    "Name": "Aghaboe Abbey",
    "Url": "",
    "Telephone": 353579000000,
    "Longitude": -7.5140093,
    "Latitude": 52.9222166,
    "AddressRegion": "Laois",
    "AddressLocality": "Aghaboe",
    "AddressCountry": "Ireland",
    "Tags": "Church Abbey,Monastery,Churches,Abbeys and Monastery,Ruins,Historic Houses and Castle"
  },
  {
    "Name": "Inish Beg Gardens",
    "Url": "http://www.inishbeg.com/gardens-woodlands/",
    "Telephone": 3532821745,
    "Longitude": -9.3438145,
    "Latitude": 51.5250555,
    "AddressRegion": "Cork",
    "AddressLocality": "",
    "AddressCountry": "Ireland",
    "Tags": "Walking,Gardens,Garden"
  },
  {
    "Name": "Delta Sensory Gardens",
    "Url": "http://deltasensorygardens.com/",
    "Telephone": 353599000000,
    "Longitude": -6.9257981,
    "Latitude": 52.8446785,
    "AddressRegion": "Carlow",
    "AddressLocality": "",
    "AddressCountry": "Ireland",
    "Tags": "Covid Safety Charter,Gardens,Garden,Cafe,Food and Drink,Food Shops,Shopping"
  },
  {
    "Name": "Mollie Moo’s Pet Farm",
    "Url": "https://molliemoos.ie/",
    "Telephone": 353877000000,
    "Longitude": -7.37065,
    "Latitude": 53.4699713,
    "AddressRegion": "Westmeath",
    "AddressLocality": "Mullingar",
    "AddressCountry": "Ireland",
    "Tags": "Visitor Farm"
  },
  {
    "Name": "Músaem Chorca Dhuibhne - Corca Dhuibhne Regional Museum",
    "Url": "http://www.westkerrymuseum.com",
    "Telephone": 353669000000,
    "Longitude": -10.406184,
    "Latitude": 52.166482,
    "AddressRegion": "Kerry",
    "AddressLocality": "Tralee",
    "AddressCountry": "Republic of Ireland",
    "Tags": "Museums and Attraction,Cafe,Food and Drink,Food Shops,Shopping,Tour"
  },
  {
    "Name": "Carrickmacross Workhouse",
    "Url": "http://carrickmacrossworkhouse.com",
    "Telephone": 353430000000,
    "Longitude": -6.7248991,
    "Latitude": 53.9785998,
    "AddressRegion": "Monaghan",
    "AddressLocality": "Carrickmacross",
    "AddressCountry": "Ireland",
    "Tags": "Learning,Photography,Historic Houses and Castle,Museums and Attraction,Tour"
  },
  {
    "Name": "The Chimera Gallery",
    "Url": "http://www.chimera-gallery.com",
    "Telephone": 353878000000,
    "Longitude": -7.3434993,
    "Latitude": 53.5251272,
    "AddressRegion": "Westmeath",
    "AddressLocality": "Mullingar",
    "AddressCountry": "Ireland",
    "Tags": "Art Gallery"
  },
  {
    "Name": "River Inny",
    "Url": "http://www.fishinginireland.info",
    "Telephone": 35318842600,
    "Longitude": -7.323131051,
    "Latitude": 53.66843186,
    "AddressRegion": "Dublin",
    "AddressLocality": "Swords",
    "AddressCountry": "Republic of Ireland",
    "Tags": "Fishing,Angling,River,Discovery Point"
  },
  {
    "Name": "James Connolly",
    "Url": "http://www.talkingstatuesdublin.ie/statues/connolly/",
    "Telephone": "",
    "Longitude": -6.254645628,
    "Latitude": 53.34874522,
    "AddressRegion": "Dublin",
    "AddressLocality": "",
    "AddressCountry": "Ireland",
    "Tags": "Public Sculpture,Talking Statue"
  },
  {
    "Name": "Dodd's Rock Beach",
    "Url": "",
    "Telephone": "",
    "Longitude": -6.213459105,
    "Latitude": 52.663357,
    "AddressRegion": "Wexford",
    "AddressLocality": "Courtown",
    "AddressCountry": "Republic of Ireland",
    "Tags": "Swimming,Swimming Pools and Water Park,Venue,Walking,Beach"
  },
  {
    "Name": "Valentia Slate",
    "Url": "https://www.facebook.com/ValentiaSlate/",
    "Telephone": 353862000000,
    "Longitude": -10.3427468,
    "Latitude": 51.9251401,
    "AddressRegion": "Kerry",
    "AddressLocality": "",
    "AddressCountry": "Ireland",
    "Tags": "Activity Operator,Natural Landscape,Tour"
  },
  {
    "Name": "Monasterboice High Cross and Round Tower",
    "Url": "https://www.visitlouth.ie/explore-and-do/explore-louth/sacred-sites-louth/monasterboice-high-cross-and-round-tower.html",
    "Telephone": 353420000000,
    "Longitude": -6.4177232,
    "Latitude": 53.7777634,
    "AddressRegion": "Louth",
    "AddressLocality": "",
    "AddressCountry": "Ireland",
    "Tags": "Photography,Learning,Walking,Historic Houses and Castle,Church Abbey,Monastery,Churches,Abbeys and Monastery,Ruins,Tour"
  },
  {
    "Name": "Sea View Garden",
    "Url": "http://www.donegalgardentrail.com/site/?page_id=2322",
    "Telephone": 353879000000,
    "Longitude": -8.2189111,
    "Latitude": 54.6309781,
    "AddressRegion": "Donegal",
    "AddressLocality": "Dromore",
    "AddressCountry": "Ireland",
    "Tags": "Gardening,Nature and Wildlife,Gardens,Garden"
  },
  {
    "Name": "War Memorial Gardens",
    "Url": "http://www.heritageireland.ie/en/dublin/warmemorialgardens/",
    "Telephone": "+353(0)14757816",
    "Longitude": -6.292519,
    "Latitude": 53.334912,
    "AddressRegion": "Dublin",
    "AddressLocality": "South Circular Road",
    "AddressCountry": "Republic of Ireland",
    "Tags": "Walking,Historic Houses and Castle,Gardens,Garden,Public Park,Nature and Wildlife,Tour"
  },
  {
    "Name": "Drewstown Woods - Girley Bog Loop",
    "Url": "http://www.irishtrails.ie",
    "Telephone": "+353(0)469248856",
    "Longitude": -6.933382333,
    "Latitude": 53.67406282,
    "AddressRegion": "Meath",
    "AddressLocality": "Kells",
    "AddressCountry": "Ireland",
    "Tags": "Walking,Natural Landscape"
  },
  {
    "Name": "Trá na gCeann (Silver Strand)",
    "Url": "",
    "Telephone": "",
    "Longitude": -9.1247356,
    "Latitude": 53.250939,
    "AddressRegion": "Galway",
    "AddressLocality": "Barna",
    "AddressCountry": "Ireland",
    "Tags": "Discovery Point"
  },
  {
    "Name": "Phoenix Park",
    "Url": "http://www.phoenixpark.ie",
    "Telephone": "+353(0)18213021",
    "Longitude": -6.315418378,
    "Latitude": 53.35573785,
    "AddressRegion": "Dublin",
    "AddressLocality": "Phoenix Park",
    "AddressCountry": "Republic of Ireland",
    "Tags": "Craft,Shopping,Cycling,Walking,Historic Houses and Castle,Gardens,Garden,Public Park,Nature and Wildlife,Venue,Sports Venues,Cafe,Food and Drink,Local Produce,Restaurant,Bike Rental,Tour,Food Shops"
  },
  {
    "Name": "Woodville Farm",
    "Url": "https://woodvillefarm.webs.com/",
    "Telephone": 353719000000,
    "Longitude": -8.5138054,
    "Latitude": 54.2687167,
    "AddressRegion": "Sligo",
    "AddressLocality": "",
    "AddressCountry": "Ireland",
    "Tags": "Agriculture,Nature and Wildlife,Visitor Farm,Tour"
  },
  {
    "Name": "Abbeyleix Loops - Killamuck Bog",
    "Url": "http://www.irishtrails.ie/Trail/Abbeyleix-Loops---Killamuck-Bog-loop/623/",
    "Telephone": "",
    "Longitude": -7.353079203,
    "Latitude": 52.90683053,
    "AddressRegion": "Laois",
    "AddressLocality": "Abbeyleix",
    "AddressCountry": "Ireland",
    "Tags": "Walking,Natural Landscape"
  },
  {
    "Name": "Cunnamore Pier",
    "Url": "",
    "Telephone": "",
    "Longitude": -9.424822,
    "Latitude": 51.503928,
    "AddressRegion": "",
    "AddressLocality": "",
    "AddressCountry": "",
    "Tags": "Embarkation Point"
  },
  {
    "Name": "James Larkin",
    "Url": "http://www.talkingstatuesdublin.ie/statues/larkin/",
    "Telephone": "",
    "Longitude": -6.259937704,
    "Latitude": 53.34907981,
    "AddressRegion": "Dublin",
    "AddressLocality": "Dublin City",
    "AddressCountry": "Republic of Ireland",
    "Tags": "Public Sculpture,Talking Statue"
  },
  {
    "Name": "Inis Meáin (Inishmaan) Seaport",
    "Url": "",
    "Telephone": "",
    "Longitude": -9.5879368,
    "Latitude": 53.0894286,
    "AddressRegion": "Galway",
    "AddressLocality": "",
    "AddressCountry": "Ireland",
    "Tags": "Discovery Point"
  },
  {
    "Name": "Great Sugar Loaf Mountain",
    "Url": "http://www.visitwicklow.ie",
    "Telephone": "",
    "Longitude": -6.151,
    "Latitude": 53.152,
    "AddressRegion": "Wicklow",
    "AddressLocality": "Kilmacanogue",
    "AddressCountry": "Ireland",
    "Tags": "Walking,Natural Landscape"
  },
  {
    "Name": "Schull Harbour",
    "Url": "",
    "Telephone": "",
    "Longitude": -9.5447695,
    "Latitude": 51.524833,
    "AddressRegion": "Cork",
    "AddressLocality": "Schull",
    "AddressCountry": "Ireland",
    "Tags": "Embarkation Point"
  },
  {
    "Name": "Donegal Garden Trail",
    "Url": "http://www.donegalgardentrail.com/",
    "Telephone": 353880000000,
    "Longitude": -8.1102391,
    "Latitude": 54.6537983,
    "AddressRegion": "Donegal",
    "AddressLocality": "",
    "AddressCountry": "Ireland",
    "Tags": "Gardening,Nature and Wildlife,Gardens,Garden"
  },
  {
    "Name": "Magherabeg Beach",
    "Url": "https://www.blueflag.global/show-site?siteId=6656",
    "Telephone": 353669000000,
    "Longitude": -10.0268528,
    "Latitude": 52.2726675,
    "AddressRegion": "Kerry",
    "AddressLocality": "",
    "AddressCountry": "Ireland",
    "Tags": "Beach"
  },
  {
    "Name": "Roscommon Castle",
    "Url": "https://www.visitroscommon.ie/roscommon-castle",
    "Telephone": 353907000000,
    "Longitude": -8.1932598,
    "Latitude": 53.635461,
    "AddressRegion": "Roscommon",
    "AddressLocality": "",
    "AddressCountry": "Ireland",
    "Tags": "Bird Watching,Nature and Wildlife,Castle,Historic Houses and Castle,Public Park,Ruins"
  },
  {
    "Name": "Collon House",
    "Url": "http://www.collonhouse.com",
    "Telephone": 353872000000,
    "Longitude": -6.4864,
    "Latitude": 53.7782,
    "AddressRegion": "Louth",
    "AddressLocality": "Collon",
    "AddressCountry": "Ireland",
    "Tags": "Historic Houses and Castle,Castle,Gardens,Garden,Tour"
  },
  {
    "Name": "Lakemount Gardens",
    "Url": "http://www.lakemountgarden.com",
    "Telephone": 353868000000,
    "Longitude": -8.406242,
    "Latitude": 51.924447,
    "AddressRegion": "Cork",
    "AddressLocality": "Glanmire",
    "AddressCountry": "Republic of Ireland",
    "Tags": "Gardens,Garden"
  },
  {
    "Name": "Ye Olde Hurdy-Gurdy Museum of Vintage Radio",
    "Url": "https://hurdygurdyradiomuseum.wordpress.com",
    "Telephone": "+353(0)868154189",
    "Longitude": -6.063619,
    "Latitude": 53.38765,
    "AddressRegion": "Dublin",
    "AddressLocality": "Howth",
    "AddressCountry": "Republic of Ireland",
    "Tags": "Historic Houses and Castle,Museums and Attraction"
  },
  {
    "Name": "Granuaile Visitor Centre",
    "Url": "https://www.irishtourist.com/things-to-do/granuaile-visitor-centre",
    "Telephone": 3539866341,
    "Longitude": -9.809611,
    "Latitude": 53.763985,
    "AddressRegion": "Mayo",
    "AddressLocality": "Louisburgh",
    "AddressCountry": "Republic of Ireland",
    "Tags": "Museums and Attraction"
  },
  {
    "Name": "Knock Shrine",
    "Url": "http://www.knock-shrine.ie",
    "Telephone": "+353(0)949388100",
    "Longitude": -8.918633603,
    "Latitude": 53.79264249,
    "AddressRegion": "Mayo",
    "AddressLocality": "Knock",
    "AddressCountry": "Republic of Ireland",
    "Tags": "Covid Safety Charter,Walking,Church Abbey,Monastery,Churches,Abbeys and Monastery,Food Shops,Shopping"
  },
  {
    "Name": "Tír na Sí",
    "Url": "http://www.tirnasi.com",
    "Telephone": 353215000000,
    "Longitude": -8.3474797,
    "Latitude": 52.0291372,
    "AddressRegion": "Cork",
    "AddressLocality": "Watergrasshill",
    "AddressCountry": "Ireland",
    "Tags": "Covid Safety Charter,Restaurant,Visitor Farm,Cafe,Food and Drink,Local Produce,Activity Operator"
  },
  {
    "Name": "Tours Of The Government Buildings",
    "Url": "http://www.taoiseach.gov.ie",
    "Telephone": "+353(0)16194116",
    "Longitude": -6.25366,
    "Latitude": 53.338393,
    "AddressRegion": "Dublin",
    "AddressLocality": "Dublin City Centre",
    "AddressCountry": "Republic of Ireland",
    "Tags": "Historic Houses and Castle,Tour"
  },
  {
    "Name": "Irish Whiskey Museum",
    "Url": "http://www.irishwhiskeymuseum.ie",
    "Telephone": "+353(0)15250970",
    "Longitude": -6.259589373,
    "Latitude": 53.34424924,
    "AddressRegion": "Dublin",
    "AddressLocality": "",
    "AddressCountry": "Republic of Ireland",
    "Tags": "Activity Operator,Museums and Attraction,Food and Drink,Pubs and Bar,Food Shops,Shopping,Tour"
  },
  {
    "Name": "Hyde Bridge Gallery",
    "Url": "https://www.yeatssociety.com/",
    "Telephone": 353719000000,
    "Longitude": -8.474933,
    "Latitude": 54.272077,
    "AddressRegion": "Sligo",
    "AddressLocality": "Sligo Town",
    "AddressCountry": "Republic of Ireland",
    "Tags": "Craft,Shopping,Art Gallery"
  },
  {
    "Name": "Selskar Abbey",
    "Url": "http://www.megalithicireland.com/Selskar%20Abbey,%20Wexford.html",
    "Telephone": 353864000000,
    "Longitude": -6.4653954,
    "Latitude": 52.3414142,
    "AddressRegion": "Wexford",
    "AddressLocality": "",
    "AddressCountry": "Ireland",
    "Tags": "Photography,Learning,Historic Houses and Castle,Church Abbey,Monastery,Churches,Abbeys and Monastery,Ruins"
  },
  {
    "Name": "Fore Abbey",
    "Url": "https://heritageireland.ie/visit/places-to-visit/fore-abbey/",
    "Telephone": 353450000000,
    "Longitude": -7.227154,
    "Latitude": 53.683924,
    "AddressRegion": "Westmeath",
    "AddressLocality": "Fore",
    "AddressCountry": "Ireland",
    "Tags": "Church Abbey,Monastery,Churches,Abbeys and Monastery,Ruins,Historic Houses and Castle"
  },
  {
    "Name": "O'Driscoll Garden Centre",
    "Url": "https://www.facebook.com/ODriscoll-Garden-Centre-449803402105043/",
    "Telephone": 35350421636,
    "Longitude": -7.7973804,
    "Latitude": 52.6702947,
    "AddressRegion": "Tipperary",
    "AddressLocality": "",
    "AddressCountry": "Ireland",
    "Tags": "Gardening,Nature and Wildlife,Gardens,Garden"
  },
  {
    "Name": "Ballagh Studio",
    "Url": "http://www.rosharvey.com/",
    "Telephone": 353749000000,
    "Longitude": -7.2898999,
    "Latitude": 55.3145175,
    "AddressRegion": "Donegal",
    "AddressLocality": "Ballagh",
    "AddressCountry": "Ireland",
    "Tags": "Craft,Shopping,Art Gallery"
  },
  {
    "Name": "Coolcarrigan House",
    "Url": "http://www.coolcarrigan.ie",
    "Telephone": "+353(0)45863527",
    "Longitude": -6.851319069,
    "Latitude": 53.31908404,
    "AddressRegion": "Kildare",
    "AddressLocality": "Naas",
    "AddressCountry": "Republic of Ireland",
    "Tags": "Castle,Historic Houses and Castle"
  },
  {
    "Name": "Whitefriar Street Church",
    "Url": "http://www.carmelites.ie",
    "Telephone": "+353(0)14758821",
    "Longitude": -6.266452,
    "Latitude": 53.339835,
    "AddressRegion": "Dublin",
    "AddressLocality": "",
    "AddressCountry": "Republic of Ireland",
    "Tags": "Church Abbey,Monastery,Churches,Abbeys and Monastery,Food Shops,Shopping"
  },
  {
    "Name": "Killary Monastic Site",
    "Url": "",
    "Telephone": "",
    "Longitude": -6.546373,
    "Latitude": 53.707926,
    "AddressRegion": "Meath",
    "AddressLocality": "Slane",
    "AddressCountry": "Republic of Ireland",
    "Tags": "Church Abbey,Monastery,Churches,Abbeys and Monastery"
  },
  {
    "Name": "Glanteenassig Wood",
    "Url": "http://www.coillteoutdoors.ie",
    "Telephone": "+353(0)667163378",
    "Longitude": -10.02929126,
    "Latitude": 52.20570913,
    "AddressRegion": "Kerry",
    "AddressLocality": "Castlegregory",
    "AddressCountry": "Republic of Ireland",
    "Tags": "Bird Watching,Nature and Wildlife,Cycling,Fishing,Angling,Walking,Forest Park,Park and Forest Walk,Natural Landscape"
  },
  {
    "Name": "Cú Chulainn",
    "Url": "http://www.talkingstatuesdublin.ie/statues/cu-chulainn/",
    "Telephone": "",
    "Longitude": -6.260721,
    "Latitude": 53.349349,
    "AddressRegion": "Dublin",
    "AddressLocality": "",
    "AddressCountry": "Ireland",
    "Tags": "Public Sculpture,Talking Statue,Cafe,Food and Drink,Food Shops,Shopping"
  },
  {
    "Name": "The Ballinglen Arts Foundation",
    "Url": "http://ballinglenartsfoundation.org",
    "Telephone": 3539643184,
    "Longitude": -9.3722143,
    "Latitude": 54.2797392,
    "AddressRegion": "Mayo",
    "AddressLocality": "Ballycastle",
    "AddressCountry": "Ireland",
    "Tags": "Covid Safety Charter,Craft,Shopping,Photography,Learning,Art Gallery,Activity Operator,Tour"
  },
  {
    "Name": "Irish Working Sheepdogs",
    "Url": "http://www.irishworkingsheepdogs.com/",
    "Telephone": 353878000000,
    "Longitude": -6.3273762,
    "Latitude": 53.0115036,
    "AddressRegion": "Wicklow",
    "AddressLocality": "",
    "AddressCountry": "Ireland",
    "Tags": "Agriculture,Nature and Wildlife,Visitor Farm"
  },
  {
    "Name": "Irish Theatre Summer School",
    "Url": "http://www.gaietyschool.com",
    "Telephone": "+353(0)16799277",
    "Longitude": -6.26073,
    "Latitude": 53.3464,
    "AddressRegion": "Dublin",
    "AddressLocality": "Dublin City Centre",
    "AddressCountry": "Republic of Ireland",
    "Tags": "Learning,Activity Operator,Literary Ireland"
  },
  {
    "Name": "Rathvilly Garden Centre",
    "Url": "http://www.carlowgardentrail.com/rathvilly-garden-centre/",
    "Telephone": 353599000000,
    "Longitude": -6.6960481,
    "Latitude": 52.8798345,
    "AddressRegion": "Carlow",
    "AddressLocality": "Rathvilly",
    "AddressCountry": "Ireland",
    "Tags": "Gardening,Nature and Wildlife,Shopping,Shopping Centres and Department Store,Gardens,Garden,Cafe,Food and Drink"
  },
  {
    "Name": "Gour Discovery Point",
    "Url": "",
    "Telephone": "",
    "Longitude": -9.9834134,
    "Latitude": 51.6298431,
    "AddressRegion": "Cork",
    "AddressLocality": "",
    "AddressCountry": "Ireland",
    "Tags": "Discovery Point"
  },
  {
    "Name": "Moygara Castle",
    "Url": "http://www.loughgaralakesandlegends.ie/lough-gara/moygara-castle",
    "Telephone": 353719000000,
    "Longitude": -8.4751904,
    "Latitude": 53.9718301,
    "AddressRegion": "Sligo",
    "AddressLocality": "",
    "AddressCountry": "Ireland",
    "Tags": "Castle,Historic Houses and Castle"
  },
  {
    "Name": "Kilgarvan Motor Museum",
    "Url": "https://www.facebook.com/Kilgarvan-Motormuseum-708264642618370",
    "Telephone": 353647000000,
    "Longitude": -9.434164,
    "Latitude": 51.889134,
    "AddressRegion": "Kerry",
    "AddressLocality": "",
    "AddressCountry": "Ireland",
    "Tags": "Museums and Attraction,Cafe,Food and Drink,Tour"
  },
  {
    "Name": "Lullymore Heritage  & Discovery Park",
    "Url": "https://www.lullymoreheritagepark.com",
    "Telephone": 35345870238,
    "Longitude": -6.9503713,
    "Latitude": 53.2701771,
    "AddressRegion": "Kildare",
    "AddressLocality": "",
    "AddressCountry": "Ireland",
    "Tags": "Covid Safety Charter,Learning,Museums and Attraction,Visitor Farm,Cafe,Food and Drink,Tour"
  },
  {
    "Name": "Angling at Jerpoint Park",
    "Url": "http://jerpointpark.com/activities-events/fishing-2/",
    "Telephone": "+353(0)866061449",
    "Longitude": -7.166836,
    "Latitude": 52.512917,
    "AddressRegion": "Kilkenny",
    "AddressLocality": "Thomastown",
    "AddressCountry": "Ireland",
    "Tags": "Fishing,Angling,Activity Operator,Natural Landscape"
  },
  {
    "Name": "Skerries Mills",
    "Url": "http://www.skerriesmills.ie",
    "Telephone": "+353(0)18495208",
    "Longitude": -6.110148,
    "Latitude": 53.574331,
    "AddressRegion": "Dublin",
    "AddressLocality": "Skerries",
    "AddressCountry": "Republic of Ireland",
    "Tags": "Covid Safety Charter,Craft,Shopping,Activity Operator,Museums and Attraction,Cafe,Food and Drink,Food Shops"
  },
  {
    "Name": "Kilmainham Gaol",
    "Url": "http://kilmainhamgaolmuseum.ie/",
    "Telephone": "+353(0)14535984",
    "Longitude": -6.30978111,
    "Latitude": 53.34188988,
    "AddressRegion": "Dublin",
    "AddressLocality": "Kilmainham",
    "AddressCountry": "Republic of Ireland",
    "Tags": "Covid Safety Charter,Museums and Attraction,Cafe,Food and Drink,Tour"
  },
  {
    "Name": "Adare Franciscan Friary",
    "Url": "http://www.adaremanor.com",
    "Telephone": 35361396204,
    "Longitude": -8.779736133,
    "Latitude": 52.55186692,
    "AddressRegion": "Limerick",
    "AddressLocality": "Adare",
    "AddressCountry": "Republic of Ireland",
    "Tags": "Photography,Learning,Historic Houses and Castle,Church Abbey,Monastery,Churches,Abbeys and Monastery,Ruins"
  },
  {
    "Name": "Sea Life Aquarium Bray",
    "Url": "https://www.visitsealife.com/bray/",
    "Telephone": 35312866939,
    "Longitude": -6.098144047,
    "Latitude": 53.20343423,
    "AddressRegion": "Wicklow",
    "AddressLocality": "Bray",
    "AddressCountry": "Republic of Ireland",
    "Tags": "Covid Safety Charter,Zoos and Aquarium"
  },
  {
    "Name": "Adelaide Road Presbyterian Church",
    "Url": "http://www.adelaideroadchurch.ie",
    "Telephone": "+353(0)12694944",
    "Longitude": -6.258781,
    "Latitude": 53.332501,
    "AddressRegion": "Dublin",
    "AddressLocality": "Dublin City",
    "AddressCountry": "Republic of Ireland",
    "Tags": "Church Abbey,Monastery,Churches,Abbeys and Monastery"
  },
  {
    "Name": "It Must Be Dingle Gallery",
    "Url": "http://www.itmustbedingle.com/",
    "Telephone": 353669000000,
    "Longitude": -10.4292799,
    "Latitude": 52.1762485,
    "AddressRegion": "Kerry",
    "AddressLocality": "Ballyferriter",
    "AddressCountry": "Ireland",
    "Tags": "Craft,Shopping,Art Gallery,Food Shops"
  },
  {
    "Name": "The Bay Garden",
    "Url": "http://www.thebaygarden.com",
    "Telephone": 353539000000,
    "Longitude": -6.443575,
    "Latitude": 52.608613,
    "AddressRegion": "Wexford",
    "AddressLocality": "Camolin",
    "AddressCountry": "Ireland",
    "Tags": "Gardening,Nature and Wildlife,Gardens,Garden"
  },
  {
    "Name": "St Multose Church",
    "Url": "",
    "Telephone": 353215000000,
    "Longitude": -8.525568,
    "Latitude": 51.70585,
    "AddressRegion": "Cork",
    "AddressLocality": "Kinsale",
    "AddressCountry": "Ireland",
    "Tags": "Church Abbey,Monastery,Churches,Abbeys and Monastery"
  },
  {
    "Name": "Bernard McGlinchey Town Park",
    "Url": "http://www.donegalcoco.ie",
    "Telephone": "+353(0)749153900",
    "Longitude": -7.736715873,
    "Latitude": 54.9511565,
    "AddressRegion": "Donegal",
    "AddressLocality": "Letterkenny",
    "AddressCountry": "Ireland",
    "Tags": "Walking,Natural Landscape,Public Park,Nature and Wildlife"
  },
  {
    "Name": "Cape Clear Heritage Centre",
    "Url": "http://www.capeclearisland.ie/heritageCentre",
    "Telephone": 3532839119,
    "Longitude": -9.49512149,
    "Latitude": 51.43300827,
    "AddressRegion": "Cork",
    "AddressLocality": "Cape Clear Island",
    "AddressCountry": "Republic of Ireland",
    "Tags": "Museums and Attraction"
  },
  {
    "Name": "Slieveardagh Heritage Centre",
    "Url": "http://www.slieveardagh.com/business/slieveardagh-enterprise-centre",
    "Telephone": "+353(0)529156165",
    "Longitude": -7.672186,
    "Latitude": 52.56818,
    "AddressRegion": "Tipperary",
    "AddressLocality": "Killenaule",
    "AddressCountry": "Republic of Ireland",
    "Tags": "Learning,Historic Houses and Castle,Church Abbey,Monastery,Churches,Abbeys and Monastery,Museums and Attraction"
  },
  {
    "Name": "Ballymastocker Strand",
    "Url": "",
    "Telephone": "",
    "Longitude": -7.5952649,
    "Latitude": 55.183983,
    "AddressRegion": "Donegal",
    "AddressLocality": "Portsalon",
    "AddressCountry": "Ireland",
    "Tags": "Discovery Point"
  },
  {
    "Name": "Bog of Allen Nature Centre",
    "Url": "http://www.ipcc.ie/visitor-attraction",
    "Telephone": 35345860133,
    "Longitude": -6.942346,
    "Latitude": 53.278587,
    "AddressRegion": "Kildare",
    "AddressLocality": "Rathangan",
    "AddressCountry": "Ireland",
    "Tags": "Walking,Museums and Attraction,Natural Landscape,Cafe,Food and Drink,Tour"
  },
  {
    "Name": "Tubberpatrick",
    "Url": "http://visitlongford.ie/listings/toberpatrick-cemetery-and-holy-well",
    "Telephone": 353433000000,
    "Longitude": -7.817613964,
    "Latitude": 53.72476692,
    "AddressRegion": "Longford",
    "AddressLocality": "",
    "AddressCountry": "Republic of Ireland",
    "Tags": "Church Abbey,Monastery,Churches,Abbeys and Monastery,Ruins,Historic Houses and Castle"
  },
  {
    "Name": "St Joseph's Redemptorist Church",
    "Url": "https://www.redemptoristsdundalk.ie",
    "Telephone": 353429000000,
    "Longitude": -6.3895579,
    "Latitude": 54.0042289,
    "AddressRegion": "Louth",
    "AddressLocality": "Dundalk",
    "AddressCountry": "Ireland",
    "Tags": "Photography,Learning,Historic Houses and Castle,Church Abbey,Monastery,Churches,Abbeys and Monastery"
  },
  {
    "Name": "St. Laurence's Gate - Drogheda Walls",
    "Url": "http://www.discoverboynevalley.ie/boyne-valley-drive/heritage-sites/st-laurences-gate-drogheda-walls",
    "Telephone": 353420000000,
    "Longitude": -6.347102,
    "Latitude": 53.71591,
    "AddressRegion": "Louth",
    "AddressLocality": "Drogheda",
    "AddressCountry": "Republic of Ireland",
    "Tags": "Photography,Learning,Historic Houses and Castle"
  },
  {
    "Name": "Caves of Keash Visitor Centre and Gift Shop",
    "Url": "http://keash.ie/caves-of-keash",
    "Telephone": 353719000000,
    "Longitude": -8.443637525,
    "Latitude": 54.04419501,
    "AddressRegion": "Sligo",
    "AddressLocality": "Ballymote",
    "AddressCountry": "Ireland",
    "Tags": "Museums and Attraction,Food Shops,Shopping,Tour"
  },
  {
    "Name": "Glor Irish Music Centre",
    "Url": "http://www.glor.ie",
    "Telephone": "+353(0)656845370",
    "Longitude": -8.977096,
    "Latitude": 52.844572,
    "AddressRegion": "Clare",
    "AddressLocality": "Ennis",
    "AddressCountry": "Republic of Ireland",
    "Tags": "Learning,Activity Operator,Museums and Attraction,Traditionally Irish,Venue,Music,Cafe,Food and Drink"
  },
  {
    "Name": "Belvedere House Gardens & Park",
    "Url": "http://www.belvedere-house.ie",
    "Telephone": 353449000000,
    "Longitude": -7.369202,
    "Latitude": 53.477197,
    "AddressRegion": "Westmeath",
    "AddressLocality": "Mullingar",
    "AddressCountry": "Ireland",
    "Tags": "Covid Safety Charter,Walking,Historic Houses and Castle,Gardens,Garden,Cafe,Food and Drink,Tour"
  },
  {
    "Name": "Skerries South Beach",
    "Url": "",
    "Telephone": "",
    "Longitude": -6.104546596,
    "Latitude": 53.58075891,
    "AddressRegion": "Dublin",
    "AddressLocality": "Skerries",
    "AddressCountry": "Ireland",
    "Tags": "Beach"
  },
  {
    "Name": "Kerry International Dark-Sky Reserve",
    "Url": "http://www.kerrydarkskytourism.com/",
    "Telephone": "+353(0)877845688",
    "Longitude": -10.09249034,
    "Latitude": 52.02430573,
    "AddressRegion": "Kerry",
    "AddressLocality": "",
    "AddressCountry": "Ireland",
    "Tags": "Learning,Photography,Natural Landscape"
  },
  {
    "Name": "Sarah Walker Gallery",
    "Url": "https://sarahwalkergallery.com/",
    "Telephone": 3532770387,
    "Longitude": -9.9122588,
    "Latitude": 51.6499614,
    "AddressRegion": "Cork",
    "AddressLocality": "Castletownbere",
    "AddressCountry": "Ireland",
    "Tags": "Craft,Shopping,Art Gallery"
  },
  {
    "Name": "Clonohill Gardens",
    "Url": "https://www.gardensofireland.org/directory/31/",
    "Telephone": 353579000000,
    "Longitude": -7.625490356,
    "Latitude": 52.98564781,
    "AddressRegion": "Laois",
    "AddressLocality": "Coolrain",
    "AddressCountry": "Ireland",
    "Tags": "Gardening,Nature and Wildlife,Gardens,Garden"
  },
  {
    "Name": "Bunratty Castle & Folk Park",
    "Url": "https://www.shannonheritage.com/attractions/bunratty-castle",
    "Telephone": 35361711222,
    "Longitude": -8.8119226,
    "Latitude": 52.6995682,
    "AddressRegion": "Clare",
    "AddressLocality": "Bunratty",
    "AddressCountry": "Ireland",
    "Tags": "Castle,Historic Houses and Castle,Gardens,Garden,Museums and Attraction,Cafe,Food and Drink,Food Shops,Shopping"
  },
  {
    "Name": "The Four Courts",
    "Url": "http://www.courts.ie/",
    "Telephone": "+353(0)18886000",
    "Longitude": -6.273526,
    "Latitude": 53.34591,
    "AddressRegion": "Dublin",
    "AddressLocality": "",
    "AddressCountry": "Republic of Ireland",
    "Tags": "Historic Houses and Castle"
  },
  {
    "Name": "Gleninchaquin Park",
    "Url": "http://www.gleninchaquin.com",
    "Telephone": "+353(0)877128553",
    "Longitude": -9.660638392,
    "Latitude": 51.80198888,
    "AddressRegion": "Kerry",
    "AddressLocality": "Tuosist",
    "AddressCountry": "Republic of Ireland",
    "Tags": "Bird Watching,Nature and Wildlife,Photography,Learning,Walking,Activity Operator,Forest Park,Park and Forest Walk,Natural Landscape,Public Park,Tour"
  },
  {
    "Name": "Ballaghaderreen Cathedral",
    "Url": "http://www.achonrydiocese.org",
    "Telephone": 353950000000,
    "Longitude": -8.577979,
    "Latitude": 53.903133,
    "AddressRegion": "Roscommon",
    "AddressLocality": "Ballaghaderreen",
    "AddressCountry": "Republic of Ireland",
    "Tags": "Church Abbey,Monastery,Churches,Abbeys and Monastery"
  },
  {
    "Name": "Inishbofin Heritage Museum & Gift Shop",
    "Url": "https://www.facebook.com/InishbofinHeritageMuseum",
    "Telephone": 353880000000,
    "Longitude": -10.206749,
    "Latitude": 53.613395,
    "AddressRegion": "Galway",
    "AddressLocality": "Inishbofin",
    "AddressCountry": "Ireland",
    "Tags": "Museums and Attraction"
  },
  {
    "Name": "Great Famine Garden of Remembrance",
    "Url": "http://www.carrickonshannonparish.com/famine.htm",
    "Telephone": 353720000000,
    "Longitude": -8.0844231,
    "Latitude": 53.951074,
    "AddressRegion": "Leitrim",
    "AddressLocality": "",
    "AddressCountry": "Ireland",
    "Tags": "Gardening,Nature and Wildlife,Gardens,Garden"
  },
  {
    "Name": "Trá an Dóilín (Coral Strand)",
    "Url": "http://www.blueflagireland.org/",
    "Telephone": "+353(0)14002202",
    "Longitude": -9.598881194,
    "Latitude": 53.26415911,
    "AddressRegion": "Galway",
    "AddressLocality": "Carraroe",
    "AddressCountry": "Ireland",
    "Tags": "Swimming,Swimming Pools and Water Park,Venue,Beach,Discovery Point"
  },
  {
    "Name": "Working Artists Studios",
    "Url": "https://www.facebook.com/Working-Artist-Studios-184258858280445/",
    "Telephone": 353862000000,
    "Longitude": -9.4614566,
    "Latitude": 51.5627245,
    "AddressRegion": "Cork",
    "AddressLocality": "Ballydehob",
    "AddressCountry": "Ireland",
    "Tags": "Craft,Shopping,Learning,Art Gallery"
  },
  {
    "Name": "Duleek Abbey",
    "Url": "http://www.discoverboynevalley.ie/boyne-valley-drive/heritage-sites/duleek-abbey",
    "Telephone": 353420000000,
    "Longitude": -6.4221752,
    "Latitude": 53.6547501,
    "AddressRegion": "Meath",
    "AddressLocality": "Duleek",
    "AddressCountry": "Ireland",
    "Tags": "Church Abbey,Monastery,Churches,Abbeys and Monastery"
  },
  {
    "Name": "Boyle Abbey",
    "Url": "https://heritageireland.ie/visit/places-to-visit/boyle-abbey/",
    "Telephone": 353720000000,
    "Longitude": -8.2970185,
    "Latitude": 53.9735204,
    "AddressRegion": "Roscommon",
    "AddressLocality": "Boyle",
    "AddressCountry": "Ireland",
    "Tags": "Church Abbey,Monastery,Churches,Abbeys and Monastery,Museums and Attraction,Ruins,Historic Houses and Castle"
  },
  {
    "Name": "Cahore Beach",
    "Url": "",
    "Telephone": "",
    "Longitude": -6.197159,
    "Latitude": 52.5590215,
    "AddressRegion": "Wexford",
    "AddressLocality": "Cahore",
    "AddressCountry": "Ireland",
    "Tags": "Beach"
  },
  {
    "Name": "Crafts of Ireland",
    "Url": "http://craftsofireland.ie",
    "Telephone": 353868000000,
    "Longitude": -7.0886528,
    "Latitude": 53.785466,
    "AddressRegion": "Cavan",
    "AddressLocality": "Virginia",
    "AddressCountry": "Ireland",
    "Tags": "Covid Safety Charter,Craft,Shopping,Learning,Activity Operator,Art Gallery"
  },
  {
    "Name": "Slieve Bloom Mountains",
    "Url": "",
    "Telephone": "",
    "Longitude": -7.5672222,
    "Latitude": 53.0933333,
    "AddressRegion": "Laois",
    "AddressLocality": "",
    "AddressCountry": "Ireland",
    "Tags": "Walking,Natural Landscape"
  },
  {
    "Name": "Claregalway Museum and Forge",
    "Url": "https://facebook.com/ClaregalwayHistoricalSociety",
    "Telephone": 353868000000,
    "Longitude": -8.927952,
    "Latitude": 53.359957,
    "AddressRegion": "Galway",
    "AddressLocality": "Claregalway",
    "AddressCountry": "Ireland",
    "Tags": "Museums and Attraction"
  },
  {
    "Name": "Owenahincha Beach",
    "Url": "https://www.blueflag.global/show-site?siteId=6657",
    "Telephone": 3532821489,
    "Longitude": -8.9966337,
    "Latitude": 51.5656789,
    "AddressRegion": "Cork",
    "AddressLocality": "",
    "AddressCountry": "Ireland",
    "Tags": "Swimming,Swimming Pools and Water Park,Venue,Walking,Beach,Natural Landscape"
  },
  {
    "Name": "Experience Gaelic Games",
    "Url": "https://experiencegaelicgames.com",
    "Telephone": 35312544292,
    "Longitude": -6.263118,
    "Latitude": 53.374288,
    "AddressRegion": "Dublin",
    "AddressLocality": "Glasnevin",
    "AddressCountry": "Ireland",
    "Tags": "Restaurant,Gaa,Learning,Activity Operator,Food and Drink,Pubs and Bar"
  },
  {
    "Name": "Dublin Art Life",
    "Url": "http://dublinartlife.com",
    "Telephone": "",
    "Longitude": -6.2603097,
    "Latitude": 53.3498053,
    "AddressRegion": "Dublin",
    "AddressLocality": "Dublin City",
    "AddressCountry": "Republic of Ireland",
    "Tags": "Art Gallery,Museums and Attraction"
  },
  {
    "Name": "Aughris Head",
    "Url": "",
    "Telephone": "",
    "Longitude": -8.7570235,
    "Latitude": 54.268943,
    "AddressRegion": "Sligo",
    "AddressLocality": "Templeboy",
    "AddressCountry": "Ireland",
    "Tags": "Discovery Point"
  },
  {
    "Name": "Drimnagh Castle",
    "Url": "http://www.drimnaghcastle.org/",
    "Telephone": "+353(0)14502530",
    "Longitude": -6.33295,
    "Latitude": 53.324844,
    "AddressRegion": "Dublin",
    "AddressLocality": "",
    "AddressCountry": "Republic of Ireland",
    "Tags": "Walking,Historic Houses and Castle,Castle,Gardens,Garden,Museums and Attraction,Food Shops,Shopping,Tour"
  },
  {
    "Name": "Droichead Charraig an Logáin (Carrickalegaun Bridge) .",
    "Url": "",
    "Telephone": "",
    "Longitude": -9.6563065,
    "Latitude": 53.288173,
    "AddressRegion": "Galway",
    "AddressLocality": "Lettermore",
    "AddressCountry": "Ireland",
    "Tags": "Discovery Point"
  },
  {
    "Name": "Custom House Studios & Gallery",
    "Url": "http://www.customhousestudios.ie",
    "Telephone": 3539828735,
    "Longitude": -9.547123817,
    "Latitude": 53.80022361,
    "AddressRegion": "Mayo",
    "AddressLocality": "Westport",
    "AddressCountry": "Republic of Ireland",
    "Tags": "Craft,Shopping,Art Gallery"
  },
  {
    "Name": "Fintown Railway",
    "Url": "http://www.antraen.com",
    "Telephone": 353750000000,
    "Longitude": -8.1200343,
    "Latitude": 54.8675964,
    "AddressRegion": "Donegal",
    "AddressLocality": "Fintown",
    "AddressCountry": "Ireland",
    "Tags": "Museums and Attraction"
  },
  {
    "Name": "Whiddy Island View Discovery Point",
    "Url": "",
    "Telephone": "",
    "Longitude": -9.582194,
    "Latitude": 51.713113,
    "AddressRegion": "Cork",
    "AddressLocality": "",
    "AddressCountry": "Ireland",
    "Tags": "Discovery Point"
  },
  {
    "Name": "Fr Patrick Peyton CSC Memorial Centre",
    "Url": "http://www.fatherpeytoncentre.ie",
    "Telephone": 3539645374,
    "Longitude": -9.0840683,
    "Latitude": 54.0498936,
    "AddressRegion": "Mayo",
    "AddressLocality": "Ballina",
    "AddressCountry": "Ireland",
    "Tags": "Museums and Attraction,Activity Operator"
  },
  {
    "Name": "The Gallery Kinsale",
    "Url": "http://thegallerykinsale.com",
    "Telephone": 353868000000,
    "Longitude": -8.5230489,
    "Latitude": 51.7050658,
    "AddressRegion": "Cork",
    "AddressLocality": "Kinsale",
    "AddressCountry": "Ireland",
    "Tags": "Craft,Shopping,Learning,Art Gallery,Food Shops"
  },
  {
    "Name": "Cuan an Daingin (Dingle Harbour)",
    "Url": "",
    "Telephone": "",
    "Longitude": -10.278091,
    "Latitude": 52.139049,
    "AddressRegion": "Kerry",
    "AddressLocality": "Dingle",
    "AddressCountry": "Ireland",
    "Tags": "Embarkation Point"
  },
  {
    "Name": "Teeling Whiskey Distillery",
    "Url": "https://www.teelingwhiskey.com",
    "Telephone": 35315310888,
    "Longitude": -6.2771221,
    "Latitude": 53.3377638,
    "AddressRegion": "Dublin",
    "AddressLocality": "Dublin",
    "AddressCountry": "Ireland",
    "Tags": "Covid Safety Charter,Food and Drink,Restaurant,Activity Operator,Museums and Attraction,Food Shops,Shopping,Tour"
  },
  {
    "Name": "Micil Distillery",
    "Url": "http://micildistillery.com",
    "Telephone": 35391450226,
    "Longitude": -9.0764149,
    "Latitude": 53.2598757,
    "AddressRegion": "Galway",
    "AddressLocality": "",
    "AddressCountry": "Ireland",
    "Tags": "Covid Safety Charter,Food and Drink,Restaurant,Museums and Attraction"
  },
  {
    "Name": "Stradbally Medieval Church",
    "Url": "",
    "Telephone": 3535841741,
    "Longitude": -7.460793487,
    "Latitude": 52.13043387,
    "AddressRegion": "Waterford",
    "AddressLocality": "Stradbally",
    "AddressCountry": "Ireland",
    "Tags": "Church Abbey,Monastery,Churches,Abbeys and Monastery"
  },
  {
    "Name": "Spanish Point Beach",
    "Url": "https://www.blueflag.global/show-site?siteId=6624",
    "Telephone": "",
    "Longitude": -9.4332912,
    "Latitude": 52.843133,
    "AddressRegion": "Clare",
    "AddressLocality": "Spanish Point",
    "AddressCountry": "Ireland",
    "Tags": "Surfing,Activity Operator,Swimming,Swimming Pools and Water Park,Venue,Beach,Natural Landscape"
  },
  {
    "Name": "Dún An Óir",
    "Url": "http://www.megalithicireland.com/Dun%20an%20Oir,%20Smerwick.html",
    "Telephone": "",
    "Longitude": -10.4149455,
    "Latitude": 52.1901965,
    "AddressRegion": "Kerry",
    "AddressLocality": "Smerwick",
    "AddressCountry": "Ireland",
    "Tags": "Church Abbey,Monastery,Churches,Abbeys and Monastery"
  },
  {
    "Name": "Arboretum Inspirational Gardens",
    "Url": "https://www.arboretum.ie/",
    "Telephone": 353600000000,
    "Longitude": -6.9747303,
    "Latitude": 52.742058,
    "AddressRegion": "Carlow",
    "AddressLocality": "Leighlinbridge",
    "AddressCountry": "Ireland",
    "Tags": "Shopping,Shopping Centres and Department Store,Gardens,Garden,Cafe,Food and Drink"
  },
  {
    "Name": "Edmund Rice Heritage Centre, Callan.",
    "Url": "http://edmundrice.net/edmund-rice/heritage-centres#•-westcourt-callan",
    "Telephone": 353568000000,
    "Longitude": -7.1167957,
    "Latitude": 52.2567373,
    "AddressRegion": "Waterford",
    "AddressLocality": "",
    "AddressCountry": "Ireland",
    "Tags": "Historic Houses and Castle,Museums and Attraction"
  },
  {
    "Name": "Kilfane Church",
    "Url": "",
    "Telephone": 353568000000,
    "Longitude": -7.118503,
    "Latitude": 52.555069,
    "AddressRegion": "Kilkenny",
    "AddressLocality": "Thomastown",
    "AddressCountry": "Republic of Ireland",
    "Tags": "Church Abbey,Monastery,Churches,Abbeys and Monastery"
  },
  {
    "Name": "Tragumna Beach",
    "Url": "https://www.blueflag.global/show-site?siteId=6662",
    "Telephone": 3532821489,
    "Longitude": -9.265747,
    "Latitude": 51.5027103,
    "AddressRegion": "Cork",
    "AddressLocality": "",
    "AddressCountry": "Ireland",
    "Tags": "Swimming,Swimming Pools and Water Park,Venue,Beach,Natural Landscape"
  },
  {
    "Name": "Ennis Friary",
    "Url": "https://www.heritageireland.ie/en/shannon-region/ennisfriary",
    "Telephone": 353657000000,
    "Longitude": -8.9814453,
    "Latitude": 52.8461632,
    "AddressRegion": "Clare",
    "AddressLocality": "Lifford",
    "AddressCountry": "Ireland",
    "Tags": "Church Abbey,Monastery,Churches,Abbeys and Monastery,Ruins,Historic Houses and Castle"
  },
  {
    "Name": "Marlfield House & Gardens",
    "Url": "https://www.marlfieldhouse.com/",
    "Telephone": 353539000000,
    "Longitude": -6.275211,
    "Latitude": 52.668747,
    "AddressRegion": "Wexford",
    "AddressLocality": "Gorey",
    "AddressCountry": "Ireland",
    "Tags": "Walking,Gardens,Garden"
  },
  {
    "Name": "Teach Mhuiris",
    "Url": "https://www.gaothdobhair.ie/en/tourist-attractions-gweedore/teach-mhuiris",
    "Telephone": 353750000000,
    "Longitude": -8.292346461,
    "Latitude": 55.07528477,
    "AddressRegion": "Donegal",
    "AddressLocality": "Derrybeg",
    "AddressCountry": "Ireland",
    "Tags": "Castle,Historic Houses and Castle"
  },
  {
    "Name": "Kildare Town Heritage Centre",
    "Url": "http://www.kildareheritage.com",
    "Telephone": 35345530672,
    "Longitude": -6.910412,
    "Latitude": 53.1569873,
    "AddressRegion": "Kildare",
    "AddressLocality": "",
    "AddressCountry": "Ireland",
    "Tags": "Covid Safety Charter,Learning,Historic Houses and Castle,Shopping,Tour"
  },
  {
    "Name": "Portmagee Harbour",
    "Url": "",
    "Telephone": "",
    "Longitude": -10.365681,
    "Latitude": 51.886058,
    "AddressRegion": "Kerry",
    "AddressLocality": "Portmagee",
    "AddressCountry": "Ireland",
    "Tags": "Embarkation Point"
  },
  {
    "Name": "Derrymore Beach",
    "Url": "",
    "Telephone": "+353(0)667121288",
    "Longitude": -9.842923401,
    "Latitude": 52.24068427,
    "AddressRegion": "Kerry",
    "AddressLocality": "Derrymore",
    "AddressCountry": "Republic of Ireland",
    "Tags": "Beach"
  },
  {
    "Name": "St. Carthage's Cathedral Lismore",
    "Url": "http://www.discoverlismore.com",
    "Telephone": 3535854975,
    "Longitude": -7.9292165,
    "Latitude": 52.1398466,
    "AddressRegion": "Waterford",
    "AddressLocality": "Lismore",
    "AddressCountry": "Ireland",
    "Tags": "Historic Houses and Castle,Church Abbey,Monastery,Churches,Abbeys and Monastery"
  },
  {
    "Name": "IrishWaterColours - Anne Osborne",
    "Url": "https://www.discoverireland.ie/Arts-Culture-Heritage/irishwatercolours-anne-osborne/14543",
    "Telephone": 353719000000,
    "Longitude": -8.600184,
    "Latitude": 54.2715044,
    "AddressRegion": "Sligo",
    "AddressLocality": "",
    "AddressCountry": "Ireland",
    "Tags": "Craft,Shopping,Art Gallery"
  },
  {
    "Name": "St Tola Irish Goat Farm",
    "Url": "https://www.st-tola.ie/",
    "Telephone": 353657000000,
    "Longitude": -9.180328,
    "Latitude": 52.9027043,
    "AddressRegion": "Clare",
    "AddressLocality": "",
    "AddressCountry": "Ireland",
    "Tags": "Covid Safety Charter,Food and Drink,Restaurant,Visitor Farm,Artisan,Local Produce"
  },
  {
    "Name": "Leitrim Sculpture Centre",
    "Url": "http://twitter.com/lsc_visual",
    "Telephone": "+00353(0)719855098",
    "Longitude": -8.175572,
    "Latitude": 54.305726,
    "AddressRegion": "Leitrim",
    "AddressLocality": "Manorhamilton",
    "AddressCountry": "Republic of Ireland",
    "Tags": "Craft,Shopping,Art Gallery"
  },
  {
    "Name": "Keem Beach",
    "Url": "https://www.blueflag.global/show-site?siteId=6677",
    "Telephone": 35314002202,
    "Longitude": -10.1928951,
    "Latitude": 53.9671631,
    "AddressRegion": "Mayo",
    "AddressLocality": "",
    "AddressCountry": "Ireland",
    "Tags": "Surfing,Activity Operator,Swimming,Swimming Pools and Water Park,Venue,Walking,Beach"
  },
  {
    "Name": "Cavan and Leitrim Railway",
    "Url": "http://cavanandleitrim.com",
    "Telephone": 353720000000,
    "Longitude": -7.91651,
    "Latitude": 53.859514,
    "AddressRegion": "Leitrim",
    "AddressLocality": "Dromod",
    "AddressCountry": "Republic of Ireland",
    "Tags": "Museums and Attraction,Tour"
  },
  {
    "Name": "Desmond Castle Adare",
    "Url": "https://heritageireland.ie/places-to-visit/adare-castle/",
    "Telephone": 35361396666,
    "Longitude": -8.78202,
    "Latitude": 52.569504,
    "AddressRegion": "Limerick",
    "AddressLocality": "Adare",
    "AddressCountry": "Ireland",
    "Tags": "Photography,Learning,Historic Houses and Castle,Castle,Ruins,Tour"
  },
  {
    "Name": "Wren’s Wood Garden",
    "Url": "http://visitwicklow.ie/attraction/wrens-wood-garden/",
    "Telephone": 35312810274,
    "Longitude": -6.101017576,
    "Latitude": 53.05493003,
    "AddressRegion": "Wicklow",
    "AddressLocality": "Ashford",
    "AddressCountry": "Ireland",
    "Tags": "Gardens,Garden"
  },
  {
    "Name": "Lettermullen & Garumna Heritage Centre",
    "Url": "https://www.xn--cuigal-eva.ie/about",
    "Telephone": 35391551744,
    "Longitude": -9.732409066,
    "Latitude": 53.24323604,
    "AddressRegion": "Galway",
    "AddressLocality": "Lettermullen Island",
    "AddressCountry": "Republic of Ireland",
    "Tags": "Tracing Your Ancestors,Museums and Attraction"
  },
  {
    "Name": "Ballymore Historic Features",
    "Url": "http://www.ballymorehistoricfeatures.com",
    "Telephone": 353868000000,
    "Longitude": -6.374547,
    "Latitude": 52.598346,
    "AddressRegion": "Wexford",
    "AddressLocality": "Ballymore",
    "AddressCountry": "Republic of Ireland",
    "Tags": "Museums and Attraction,Tour"
  },
  {
    "Name": "Oakfield Park",
    "Url": "http://www.oakfieldpark.com",
    "Telephone": 353749000000,
    "Longitude": -7.574653021,
    "Latitude": 54.8772055,
    "AddressRegion": "Donegal",
    "AddressLocality": "Raphoe",
    "AddressCountry": "Ireland",
    "Tags": "Covid Safety Charter,Castle,Historic Houses and Castle"
  },
  {
    "Name": "The Ballinglen Museum of Art",
    "Url": "http://www.ballinglenartsfoundation.org",
    "Telephone": 3539643184,
    "Longitude": -9.3722177,
    "Latitude": 54.2797399,
    "AddressRegion": "Mayo",
    "AddressLocality": "Ballycastle",
    "AddressCountry": "Ireland",
    "Tags": "Craft,Shopping,Photography,Learning,Art Gallery,Museums and Attraction"
  },
  {
    "Name": "Away to Me Sheepdog Demonstrations",
    "Url": "https://awaytome.ie/",
    "Telephone": 353872000000,
    "Longitude": -8.7820907,
    "Latitude": 54.6671713,
    "AddressRegion": "Donegal",
    "AddressLocality": "Malin Beg",
    "AddressCountry": "Ireland",
    "Tags": "Activity Operator,Visitor Farm,Boat,Tour"
  },
  {
    "Name": "Farney Castle",
    "Url": "https://cyrilcullen.wordpress.com/farney-castle",
    "Telephone": 35350443281,
    "Longitude": -7.901032,
    "Latitude": 52.671861,
    "AddressRegion": "Tipperary",
    "AddressLocality": "Thurles",
    "AddressCountry": "Ireland",
    "Tags": "Craft,Shopping,Photography,Learning,Historic Houses and Castle,Castle,Cafe,Food and Drink,Food Shops,Tour"
  },
  {
    "Name": "Elly Bay Beach",
    "Url": "https://www.blueflag.global/show-site?siteId=6674",
    "Telephone": 35314002202,
    "Longitude": -10.09206433,
    "Latitude": 54.15979422,
    "AddressRegion": "Mayo",
    "AddressLocality": "",
    "AddressCountry": "Republic of Ireland",
    "Tags": "Bird Watching,Nature and Wildlife,Sailing,Activity Operator,Surfing,Swimming,Swimming Pools and Water Park,Venue,Beach"
  },
  {
    "Name": "Abbeyderg Abbey and Graveyard",
    "Url": "http://visitlongford.ie/listings/abbeyderg-abbey",
    "Telephone": 353433000000,
    "Longitude": -7.789106677,
    "Latitude": 53.6334654,
    "AddressRegion": "Longford",
    "AddressLocality": "Kenagh",
    "AddressCountry": "Republic of Ireland",
    "Tags": "Photography,Learning,Historic Houses and Castle,Church Abbey,Monastery,Churches,Abbeys and Monastery,Ruins"
  },
  {
    "Name": "Glasnevin Cemetery Museum",
    "Url": "http://www.glasnevinmuseum.ie",
    "Telephone": 35318826550,
    "Longitude": -6.2770874,
    "Latitude": 53.37003,
    "AddressRegion": "Dublin",
    "AddressLocality": "Glasnevin",
    "AddressCountry": "Ireland",
    "Tags": "Walking,Tracing Your Ancestors,Gardens,Garden,Museums and Attraction,Public Sculpture,Cafe,Food and Drink,Food Shops,Shopping,Tour"
  },
  {
    "Name": "The National Design & Craft Gallery",
    "Url": "https://www.ndcg.ie/",
    "Telephone": 353568000000,
    "Longitude": -7.2500786,
    "Latitude": 52.6493621,
    "AddressRegion": "Kilkenny",
    "AddressLocality": "",
    "AddressCountry": "Ireland",
    "Tags": "Craft,Shopping,Learning,Art Gallery,Cafe,Food and Drink"
  },
  {
    "Name": "Freshford Loop",
    "Url": "http://www.trailkilkenny.ie",
    "Telephone": "",
    "Longitude": -7.399741169,
    "Latitude": 52.73450163,
    "AddressRegion": "Kilkenny",
    "AddressLocality": "Freshford",
    "AddressCountry": "Republic of Ireland",
    "Tags": "Walking,Natural Landscape"
  },
  {
    "Name": "Gurteen Beach",
    "Url": "",
    "Telephone": "",
    "Longitude": -9.960840282,
    "Latitude": 53.37948911,
    "AddressRegion": "Galway",
    "AddressLocality": "Roundstone",
    "AddressCountry": "Ireland",
    "Tags": "Beach"
  },
  {
    "Name": "Magilligan Point View",
    "Url": "",
    "Telephone": "",
    "Longitude": -7.0140302,
    "Latitude": 55.22405,
    "AddressRegion": "Donegal",
    "AddressLocality": "Greencastle",
    "AddressCountry": "Republic of Ireland",
    "Tags": "Discovery Point"
  },
  {
    "Name": "Fionn MacCool Loop",
    "Url": "http://www.irishtrails.ie/Trail/Fionn-MacCool-Loop---Bonane-Beara/473/",
    "Telephone": "",
    "Longitude": -9.536642639,
    "Latitude": 51.81601273,
    "AddressRegion": "Kerry",
    "AddressLocality": "Bonane",
    "AddressCountry": "Republic of Ireland",
    "Tags": "Walking,Natural Landscape"
  },
  {
    "Name": "Ionad Cois Locha",
    "Url": "http://www.dunleweycentre.com",
    "Telephone": 353750000000,
    "Longitude": -8.1476412,
    "Latitude": 55.025326,
    "AddressRegion": "Donegal",
    "AddressLocality": "Letterkenny",
    "AddressCountry": "Ireland",
    "Tags": "Craft,Shopping,Cruising,Kayaking,Activity Operator,Walking,Museums and Attraction,Cafe,Food and Drink,Boat,Tour,Food Shops"
  },
  {
    "Name": "Brushwood Studios Art Gallery",
    "Url": "http://www.brushwoodstudios.com",
    "Telephone": 353647000000,
    "Longitude": -9.8698743,
    "Latitude": 51.8283045,
    "AddressRegion": "Kerry",
    "AddressLocality": "Sneem",
    "AddressCountry": "Ireland",
    "Tags": "Craft,Shopping,Art Gallery"
  },
  {
    "Name": "Clonony Castle",
    "Url": "https://facebook.com/ClononyCastle/?fref=ts",
    "Telephone": 353878000000,
    "Longitude": -7.922767,
    "Latitude": 53.2358989,
    "AddressRegion": "Offaly",
    "AddressLocality": "",
    "AddressCountry": "Ireland",
    "Tags": "Photography,Learning,Historic Houses and Castle,Castle"
  },
  {
    "Name": "North Tipperary Genealogy Centre",
    "Url": "http://www.tipperarycoco.ie/heritage/genealogy-centre",
    "Telephone": 3536733850,
    "Longitude": -8.200283933,
    "Latitude": 52.86578066,
    "AddressRegion": "Tipperary",
    "AddressLocality": "Nenagh",
    "AddressCountry": "Republic of Ireland",
    "Tags": "Tracing Your Ancestors,Museums and Attraction"
  },
  {
    "Name": "Bishop's Quarter",
    "Url": "",
    "Telephone": "",
    "Longitude": -9.127942,
    "Latitude": 53.1291281,
    "AddressRegion": "Clare",
    "AddressLocality": "Ballyvaughan",
    "AddressCountry": "Ireland",
    "Tags": "Swimming,Swimming Pools and Water Park,Venue,Beach,Natural Landscape"
  },
  {
    "Name": "National Print Museum",
    "Url": "https://www.nationalprintmuseum.ie",
    "Telephone": 35316603770,
    "Longitude": -6.2354701,
    "Latitude": 53.3352901,
    "AddressRegion": "Dublin",
    "AddressLocality": "",
    "AddressCountry": "Ireland",
    "Tags": "Covid Safety Charter,Craft,Shopping,Learning,Activity Operator,Museums and Attraction,Cafe,Food and Drink,Local Produce,Restaurant,Food Shops,Tour"
  },
  {
    "Name": "Balbriggan Beach",
    "Url": "",
    "Telephone": "+353(0)18400077",
    "Longitude": -6.182411859,
    "Latitude": 53.61201653,
    "AddressRegion": "Dublin",
    "AddressLocality": "Swords",
    "AddressCountry": "Republic of Ireland",
    "Tags": "Beach"
  },
  {
    "Name": "Killoughternane",
    "Url": "",
    "Telephone": "",
    "Longitude": -6.824711153,
    "Latitude": 52.66285596,
    "AddressRegion": "Carlow",
    "AddressLocality": "Bagenalstown",
    "AddressCountry": "Republic of Ireland",
    "Tags": "Church Abbey,Monastery,Churches,Abbeys and Monastery,Ruins,Historic Houses and Castle"
  },
  {
    "Name": "Kerry Geopark",
    "Url": "https://www.facebook.com/kerrygeopark",
    "Telephone": "+353(0)877934663",
    "Longitude": -9.897747,
    "Latitude": 51.837759,
    "AddressRegion": "Kerry",
    "AddressLocality": "Sneem",
    "AddressCountry": "Republic of Ireland",
    "Tags": "Walking,Natural Landscape,Activity Operator"
  },
  {
    "Name": "The Barony Of Erris Birdwatching",
    "Url": "https://www.mayo-ireland.ie/en/towns-villages/bangor/bangor-activities-birdwatching.html",
    "Telephone": "+353(0)9782292",
    "Longitude": -9.990733019,
    "Latitude": 54.2237204,
    "AddressRegion": "Mayo",
    "AddressLocality": "",
    "AddressCountry": "Republic of Ireland",
    "Tags": "Bird Watching,Nature and Wildlife,Natural Landscape"
  },
  {
    "Name": "Cappoquin House Gardens",
    "Url": "https://www.cappoquinhouseandgardens.com",
    "Telephone": 3535854290,
    "Longitude": -7.8503399,
    "Latitude": 52.1494507,
    "AddressRegion": "Waterford",
    "AddressLocality": "Cappoquin",
    "AddressCountry": "Ireland",
    "Tags": "Walking,Gardens,Garden,Historic Houses and Castle,Tour"
  },
  {
    "Name": "Ballymoney North Beach",
    "Url": "https://www.blueflag.global/show-site?siteId=10257",
    "Telephone": "",
    "Longitude": -6.203500032,
    "Latitude": 52.67669255,
    "AddressRegion": "Wexford",
    "AddressLocality": "Ballymoney",
    "AddressCountry": "Ireland",
    "Tags": "Beach"
  },
  {
    "Name": "The Wexford Slobs and Wildfowl Reserve",
    "Url": "https://www.wexfordwildfowlreserve.ie",
    "Telephone": 353761000000,
    "Longitude": -6.4200302,
    "Latitude": 52.3570279,
    "AddressRegion": "Wexford",
    "AddressLocality": "",
    "AddressCountry": "Ireland",
    "Tags": "Bird Watching,Nature and Wildlife,Learning,Photography,Forest Park,Park and Forest Walk,Walking,National Park,National and Forest Park,Natural Landscape"
  },
  {
    "Name": "Ballintubbert Gardens & House",
    "Url": "https://www.ballintubbert.com/gardens",
    "Telephone": 353420000000,
    "Longitude": -7.086172,
    "Latitude": 52.985038,
    "AddressRegion": "Laois",
    "AddressLocality": "Ballintubbert",
    "AddressCountry": "Ireland",
    "Tags": "Restaurant,Gardening,Nature and Wildlife,Learning,Gardens,Garden,Historic Houses and Castle,Local Produce,Food and Drink"
  },
  {
    "Name": "Bushy Park",
    "Url": "",
    "Telephone": "+353(0)14900320",
    "Longitude": -6.292767969,
    "Latitude": 53.30131952,
    "AddressRegion": "Dublin",
    "AddressLocality": "Terenure",
    "AddressCountry": "Republic of Ireland",
    "Tags": "Forest Park,Park and Forest Walk,Walking,National Park,National and Forest Park,Public Park,Nature and Wildlife"
  },
  {
    "Name": "Morriscastle Beach",
    "Url": "https://www.blueflag.global/show-site?siteId=6636",
    "Telephone": "",
    "Longitude": -6.2383223,
    "Latitude": 52.5141228,
    "AddressRegion": "Wexford",
    "AddressLocality": "",
    "AddressCountry": "Ireland",
    "Tags": "Swimming,Swimming Pools and Water Park,Venue,Walking,Beach"
  },
  {
    "Name": "Inishcrone Pier (Enniscrone Pier)",
    "Url": "",
    "Telephone": "",
    "Longitude": -9.096038,
    "Latitude": 54.220128,
    "AddressRegion": "Sligo",
    "AddressLocality": "Enniscrone",
    "AddressCountry": "Ireland",
    "Tags": "Discovery Point"
  },
  {
    "Name": "The Irish Rock 'N' Roll Museum Experience",
    "Url": "https://www.facebook.com/irishrockmuseum",
    "Telephone": "+353(0)16351993",
    "Longitude": -6.2645993,
    "Latitude": 53.344865,
    "AddressRegion": "Dublin",
    "AddressLocality": "",
    "AddressCountry": "Ireland",
    "Tags": "Covid Safety Charter,Activity Operator,Museums and Attraction,Traditionally Irish,Food Shops,Shopping,Tour"
  },
  {
    "Name": "Marlay Park",
    "Url": "http://www.dlrcoco.ie/parks/marlay_information.html",
    "Telephone": "+353(0)14937372",
    "Longitude": -6.276237376,
    "Latitude": 53.27676505,
    "AddressRegion": "Dublin",
    "AddressLocality": "Rathfarnham",
    "AddressCountry": "Republic of Ireland",
    "Tags": "Cycling,Golf,Walking,Gardens,Garden,Historic Houses and Castle,Public Park,Nature and Wildlife,Venue,Music,Sports Venues,Cafe,Food and Drink,Local Produce,Restaurant,Food Shops,Shopping,Tour"
  },
  {
    "Name": "Green On Red Gallery",
    "Url": "http://www.greenonredgallery.com",
    "Telephone": "+353(0)872454282",
    "Longitude": -6.237870976,
    "Latitude": 53.35016604,
    "AddressRegion": "Dublin",
    "AddressLocality": "Dublin City Centre",
    "AddressCountry": "Republic of Ireland",
    "Tags": "Craft,Shopping,Art Gallery,Food Shops"
  },
  {
    "Name": "City Highlights Walking Tour- Dublin",
    "Url": "http://sightwalkingdublin.com/",
    "Telephone": "+353(0)862002480",
    "Longitude": -6.2604903,
    "Latitude": 53.3396625,
    "AddressRegion": "Dublin",
    "AddressLocality": "",
    "AddressCountry": "Ireland",
    "Tags": "Gaa,Walking,Activity Operator,Tour"
  },
  {
    "Name": "Cobh Museum",
    "Url": "http://www.cobhmuseum.com",
    "Telephone": 353215000000,
    "Longitude": -8.2994359,
    "Latitude": 51.8493205,
    "AddressRegion": "Cork",
    "AddressLocality": "Kilgarvan",
    "AddressCountry": "Ireland",
    "Tags": "Tracing Your Ancestors,Historic Houses and Castle,Museums and Attraction"
  },
  {
    "Name": "Garrylucas Beach",
    "Url": "https://www.blueflag.global/show-site?siteId=6650",
    "Telephone": 353215000000,
    "Longitude": -8.5655197,
    "Latitude": 51.6403568,
    "AddressRegion": "Cork",
    "AddressLocality": "",
    "AddressCountry": "Ireland",
    "Tags": "Swimming,Swimming Pools and Water Park,Venue,Walking,Beach,Natural Landscape"
  },
  {
    "Name": "The Úna Guy Studio",
    "Url": "http://Unaguy.ie",
    "Telephone": "+353(0)868109972",
    "Longitude": -6.264839781,
    "Latitude": 53.3451271,
    "AddressRegion": "Dublin",
    "AddressLocality": "",
    "AddressCountry": "Ireland",
    "Tags": "Craft,Shopping,Art Gallery,Food Shops"
  },
  {
    "Name": "Michael Collins House",
    "Url": "http://michaelcollinshouse.ie",
    "Telephone": 353239000000,
    "Longitude": -8.8914,
    "Latitude": 51.6217,
    "AddressRegion": "Cork",
    "AddressLocality": "Clonakilty",
    "AddressCountry": "Ireland",
    "Tags": "Covid Safety Charter,Museums and Attraction,Food Shops,Shopping,Tour"
  },
  {
    "Name": "Piltown - Mountain Grove Loop",
    "Url": "http://www.trailkilkenny.ie",
    "Telephone": "+353(0)567752111",
    "Longitude": -7.341113595,
    "Latitude": 52.35373178,
    "AddressRegion": "Kilkenny",
    "AddressLocality": "",
    "AddressCountry": "Ireland",
    "Tags": "Walking,Natural Landscape"
  },
  {
    "Name": "Killala Quay",
    "Url": "",
    "Telephone": "",
    "Longitude": -9.2192835,
    "Latitude": 54.213245,
    "AddressRegion": "Mayo",
    "AddressLocality": "Killala",
    "AddressCountry": "Ireland",
    "Tags": "Discovery Point"
  },
  {
    "Name": "The Jeanie Johnston",
    "Url": "http://www.jeaniejohnston.ie",
    "Telephone": "+353(0)14730111",
    "Longitude": -6.245995144,
    "Latitude": 53.34776903,
    "AddressRegion": "Dublin",
    "AddressLocality": "Dublin City",
    "AddressCountry": "Republic of Ireland",
    "Tags": "Covid Safety Charter,Activity Operator,Museums and Attraction,Tour"
  },
  {
    "Name": "Abbey Road Artists’ Studios",
    "Url": "http://www.athloneartsandtourism.ie/artists-studios/",
    "Telephone": 353906000000,
    "Longitude": -7.9442923,
    "Latitude": 53.429856,
    "AddressRegion": "Westmeath",
    "AddressLocality": "Athlone",
    "AddressCountry": "Ireland",
    "Tags": "Craft,Shopping,Art Gallery"
  },
  {
    "Name": "Wexford Town Library",
    "Url": "http://www.wexford.ie/library",
    "Telephone": "+353(0)539121637",
    "Longitude": -6.463811,
    "Latitude": 52.342114,
    "AddressRegion": "Wexford",
    "AddressLocality": "Wexford Town",
    "AddressCountry": "Republic of Ireland",
    "Tags": "Literary Ireland"
  },
  {
    "Name": "Brideweir Hous",
    "Url": "https://www.brideweir.ie",
    "Telephone": 3532536386,
    "Longitude": -8.1550475,
    "Latitude": 52.0869699,
    "AddressRegion": "Cork",
    "AddressLocality": "Conna",
    "AddressCountry": "Ireland",
    "Tags": "Castle,Historic Houses and Castle"
  },
  {
    "Name": "Clasac",
    "Url": "http://www.clasac.ie",
    "Telephone": "+353(0)18363060",
    "Longitude": -6.230766,
    "Latitude": 53.360651,
    "AddressRegion": "Dublin",
    "AddressLocality": "Clontarf",
    "AddressCountry": "Republic of Ireland",
    "Tags": "Learning,Museums and Attraction,Traditionally Irish,Venue,Music,Food Shops,Shopping"
  },
  {
    "Name": "Lassanroe Garden",
    "Url": "https://www.discoverireland.ie/Arts-Culture-Heritage/lassanroe-garden/71154",
    "Telephone": 3532822563,
    "Longitude": -9.311018382,
    "Latitude": 51.58731379,
    "AddressRegion": "Cork",
    "AddressLocality": "Skibbereen",
    "AddressCountry": "Republic of Ireland",
    "Tags": "Gardening,Nature and Wildlife,Gardens,Garden"
  },
  {
    "Name": "Bere Island - East End Pier",
    "Url": "",
    "Telephone": "",
    "Longitude": -9.819922,
    "Latitude": 51.634348,
    "AddressRegion": "Cork",
    "AddressLocality": "Bere Island",
    "AddressCountry": "Ireland",
    "Tags": "Discovery Point"
  },
  {
    "Name": "Greenacres Art Centre",
    "Url": "https://www.greenacres.ie/the-gallery/",
    "Telephone": 353539000000,
    "Longitude": -6.464030093,
    "Latitude": 52.34143477,
    "AddressRegion": "Wexford",
    "AddressLocality": "Wexford Town",
    "AddressCountry": "Republic of Ireland",
    "Tags": "Craft,Shopping,Art Gallery,Venue,Comedy,Music,Activity Operator"
  },
  {
    "Name": "Rascals Brewing Company",
    "Url": "https://rascalsbrewing.com",
    "Telephone": 35315382051,
    "Longitude": -6.3240651,
    "Latitude": 53.3361014,
    "AddressRegion": "Dublin",
    "AddressLocality": "Inchicore",
    "AddressCountry": "Ireland",
    "Tags": "Covid Safety Charter,Restaurant,Food and Drink,Activity Operator,Museums and Attraction,Pubs and Bar,Food Shops,Shopping,Tour"
  },
  {
    "Name": "Samphire Island",
    "Url": "",
    "Telephone": "",
    "Longitude": -9.859530615,
    "Latitude": 52.27970839,
    "AddressRegion": "Kerry",
    "AddressLocality": "Fenit",
    "AddressCountry": "Republic of Ireland",
    "Tags": "Discovery Point"
  },
  {
    "Name": "Locaboat Ireland",
    "Url": "https://www.locaboat.com/en/boating-holidays/ireland/shannon/",
    "Telephone": 353720000000,
    "Longitude": -8.099788373,
    "Latitude": 53.94423816,
    "AddressRegion": "Leitrim",
    "AddressLocality": "",
    "AddressCountry": "Republic of Ireland",
    "Tags": "Cruising,Activity Operator,River,Discovery Point,Boat,Tour"
  },
  {
    "Name": "Carrowteige - Children of Lir Loop",
    "Url": "http://www.irishtrails.ie/Trail/Carrowteige--Children-of-Lir--Loop/141/",
    "Telephone": "",
    "Longitude": -9.813638063,
    "Latitude": 54.31261173,
    "AddressRegion": "Mayo",
    "AddressLocality": "",
    "AddressCountry": "Republic of Ireland",
    "Tags": "Walking,Public Park,Nature and Wildlife,Public Sculpture"
  },
  {
    "Name": "Killiney  Hill",
    "Url": "http://www.dlrcoco.ie/parks/killiney.html",
    "Telephone": "+353(0)12047275",
    "Longitude": -6.107273729,
    "Latitude": 53.2703464,
    "AddressRegion": "Dublin",
    "AddressLocality": "Killiney",
    "AddressCountry": "Ireland",
    "Tags": "Photography,Learning,Walking,Natural Landscape,Public Park,Nature and Wildlife,Cafe,Food and Drink"
  },
  {
    "Name": "Douglas Hyde Gallery",
    "Url": "https://www.facebook.com/douglashydegallery",
    "Telephone": 35318961116,
    "Longitude": -6.257711,
    "Latitude": 53.34328,
    "AddressRegion": "Dublin",
    "AddressLocality": "Dublin City Centre",
    "AddressCountry": "Republic of Ireland",
    "Tags": "Covid Safety Charter,Craft,Shopping,Photography,Learning,Art Gallery,Food Shops"
  },
  {
    "Name": "Wicklow Brewery",
    "Url": "https://www.wicklowbrewery.ie/brewery.html",
    "Telephone": 35340441661,
    "Longitude": -6.14497101,
    "Latitude": 52.88935803,
    "AddressRegion": "Wicklow",
    "AddressLocality": "Redcross",
    "AddressCountry": "Ireland",
    "Tags": "Food and Drink,Restaurant,Museums and Attraction,Pubs and Bar,Tour"
  },
  {
    "Name": "Government Buildings",
    "Url": "http://www.taoiseach.gov.ie",
    "Telephone": "+353(0)16194249",
    "Longitude": -6.254129,
    "Latitude": 53.339374,
    "AddressRegion": "Dublin",
    "AddressLocality": "",
    "AddressCountry": "Republic of Ireland",
    "Tags": "Historic Houses and Castle,Tour"
  },
  {
    "Name": "Bá Fhionntrá (Fintragh Bay)",
    "Url": "",
    "Telephone": "",
    "Longitude": -8.4882206,
    "Latitude": 54.635294,
    "AddressRegion": "Donegal",
    "AddressLocality": "",
    "AddressCountry": "Ireland",
    "Tags": "Discovery Point"
  },
  {
    "Name": "Ballyshannon and District Museum",
    "Url": "https://www.facebook.com/Ballyshannonmuseum",
    "Telephone": 353877000000,
    "Longitude": -8.1894979,
    "Latitude": 54.5011941,
    "AddressRegion": "Donegal",
    "AddressLocality": "Ballyshannon",
    "AddressCountry": "Ireland",
    "Tags": "Museums and Attraction"
  },
  {
    "Name": "Kilkenny Library Local Studies",
    "Url": "http://kilkennylibrary.ie/eng/our_services/local_studies",
    "Telephone": "+353(0)567794160",
    "Longitude": -7.246596988,
    "Latitude": 52.65542983,
    "AddressRegion": "Kilkenny",
    "AddressLocality": "Kilkenny City",
    "AddressCountry": "Republic of Ireland",
    "Tags": "Learning,Tracing Your Ancestors,Literary Ireland"
  },
  {
    "Name": "Altar",
    "Url": "",
    "Telephone": "",
    "Longitude": -9.6438852,
    "Latitude": 51.514061,
    "AddressRegion": "Cork",
    "AddressLocality": "Schull",
    "AddressCountry": "Ireland",
    "Tags": "Discovery Point"
  },
  {
    "Name": "Stonewell Cottage Garden",
    "Url": "https://www.discoverireland.ie/Arts-Culture-Heritage/stonewell-cottage-garden/76464",
    "Telephone": 353599000000,
    "Longitude": -6.696926758,
    "Latitude": 52.88025675,
    "AddressRegion": "Carlow",
    "AddressLocality": "Rathvilly",
    "AddressCountry": "Republic of Ireland",
    "Tags": "Gardening,Nature and Wildlife,Gardens,Garden"
  },
  {
    "Name": "Barleycove Beach",
    "Url": "https://www.blueflag.global/show-site?siteId=6645",
    "Telephone": 3532821489,
    "Longitude": -9.7769335,
    "Latitude": 51.4690113,
    "AddressRegion": "Cork",
    "AddressLocality": "",
    "AddressCountry": "Ireland",
    "Tags": "Swimming,Swimming Pools and Water Park,Venue,Walking,Beach,Natural Landscape"
  },
  {
    "Name": "Arklow Beach",
    "Url": "",
    "Telephone": "",
    "Longitude": -6.126780942,
    "Latitude": 52.81185983,
    "AddressRegion": "Wicklow",
    "AddressLocality": "Arklow",
    "AddressCountry": "Ireland",
    "Tags": "Beach"
  },
  {
    "Name": "IMI Conference Centre & Residence",
    "Url": "http://www.imi.ie/",
    "Telephone": "+353(0)12078400",
    "Longitude": -6.231596,
    "Latitude": 53.275966,
    "AddressRegion": "Dublin",
    "AddressLocality": "Sandyford",
    "AddressCountry": "Republic of Ireland",
    "Tags": "Restaurant,Learning,Historic Houses and Castle,Food and Drink,Food Shops,Shopping"
  },
  {
    "Name": "Ceann Ramhar (Doohoma Head)",
    "Url": "",
    "Telephone": "",
    "Longitude": -9.9620461,
    "Latitude": 54.07159,
    "AddressRegion": "Mayo",
    "AddressLocality": "Doohoma",
    "AddressCountry": "Ireland",
    "Tags": "Discovery Point"
  },
  {
    "Name": "Tullahought Kilmacoliver Loop Walk",
    "Url": "http://www.trailkilkenny.ie",
    "Telephone": "",
    "Longitude": -7.373104348,
    "Latitude": 52.42256284,
    "AddressRegion": "Kilkenny",
    "AddressLocality": "",
    "AddressCountry": "Republic of Ireland",
    "Tags": "Walking,Natural Landscape"
  },